,id,name,lat,lon,frequency_new,frequency_old,frequency_diff
0,201,Fremantle Dr after 1st McKail Cr,-35.347043,149.047943,247,444,-0.44269662921348313
1,300,Ainslie PS Donaldson St,-35.27362,149.140829,236,465,-0.49141630901287553
2,401,MacFarlane Burnet Av after 1st Eccles Cct,-35.21606,149.00305,488,891,-0.4517937219730942
3,402,MacFarlane Burnet Av before Hollows Cct,-35.212835999999996,149.004189,488,891,-0.4517937219730942
4,403,MacFarlane Burnet Av after Hollows Cct,-35.212665,149.00401599999998,488,891,-0.4517937219730942
5,404,MacFarlane Burnet Av before De Gruchy Pl,-35.2162,149.003141,488,891,-0.4517937219730942
6,405,MacFarlane Burnet Av after Constance Stone St,-35.209343,149.00322,488,891,-0.4517937219730942
7,406,MacFarlane Burnet Av opp Constance Stone St,-35.209295000000004,149.002975,488,891,-0.4517937219730942
8,600,O'Hanlon Pl after Gold Creek Rd,-35.192122,149.08597,239,720,-0.6671289875173371
9,601,O'Hanlon Pl before Gold Creek Rd,-35.192143,149.08607,239,760,-0.6846254927726675
10,1001,Drumston St opp MacKillop College,-35.426111999999996,149.091607,231,785,-0.7048346055979644
11,1002,Mackillop College Drumston St,-35.425974,149.091709,234,750,-0.6870838881491345
12,1007,Ellerston Av opp Isabella Plains Shops,-35.427862,149.091027,478,807,-0.40717821782178215
13,1008,Isabella Plains Shops Ellerston Av,-35.427477,149.09142,489,796,-0.3851944792973651
14,1009,Mackillop College Ellerston Av,-35.425653999999994,149.095483,247,391,-0.3673469387755102
15,1010,Ellerston Av opp Mackillop College,-35.425764,149.095466,255,415,-0.38461538461538464
16,1011,Ellerston Av before 1st Abercorn Cr,-35.426368,149.09800800000002,247,391,-0.3673469387755102
17,1012,Ellerston Av opp 2nd Abercorn Cr,-35.426603,149.09811399999998,255,415,-0.38461538461538464
18,1013,Ellerston Av before 2nd Abercorn Cr,-35.428486,149.10062299999998,247,391,-0.3673469387755102
19,1014,Ellerston Av before 2nd Groveland Cr,-35.428391,149.10036000000002,255,415,-0.38461538461538464
20,1015,Ellerston Av before Ashley Dr,-35.42879,149.10288899999998,247,391,-0.3673469387755102
21,1016,Ellerston Av after Ashley Dr,-35.428922,149.102838,255,415,-0.38461538461538464
22,1017,Calwell Shops Webber Cr,-35.435094,149.113745,1930,2417,-0.20140612076095948
23,1018,Boddington Cr after Bacchus Cct,-35.379387,149.05488300000002,213,189,0.12631578947368421
24,1019,Casey Cr before Carpenter Cl,-35.436661,149.11129,231,480,-0.5176715176715176
25,1020,Casey Cr opp Carpenter Cl,-35.436859000000005,149.110846,234,468,-0.4989339019189765
26,1027,Duggan St after Downard St,-35.439864,149.098624,234,466,-0.49678800856531047
27,1028,Duggan St after Beckett St,-35.439836,149.098479,231,477,-0.5146443514644351
28,1029,Duggan St before 1st Pennington Cr,-35.441602,149.100907,231,477,-0.5146443514644351
29,1030,Duggan St before 2nd Andrew Cr,-35.441603,149.101116,234,466,-0.49678800856531047
30,1031,Tharwa Dr after Duggan St,-35.444823,149.10572,234,465,-0.4957081545064378
31,1032,Tharwa Dr before Duggan St,-35.444455,149.103996,231,476,-0.5136268343815513
32,1033,Lawrence Wackett Cr opp Theodore PS,-35.447275,149.12461299999998,231,479,-0.5166666666666667
33,1034,Theodore PS Lawrence Wackett Cr,-35.447346,149.12448700000002,234,470,-0.5010615711252654
34,1035,Lawrence Wackett Cr after 1st Burdett Cr,-35.449867,149.12256599999998,234,468,-0.4989339019189765
35,1036,Lawrence Wackett Cr before Chippindall Cct,-35.450002000000005,149.122491,231,479,-0.5166666666666667
36,1037,Chippindall Cct opp Goldfinch Cct,-35.450823,149.120097,234,468,-0.4989339019189765
37,1038,Chippindall Cct after Latchford St,-35.450720000000004,149.120304,231,479,-0.5166666666666667
38,1044,Hurtle Av after 1st Noarlunga Cr,-35.434802000000005,149.086149,517,724,-0.28551724137931034
39,1045,Hurtle Av opp 2nd Noarlunga Cr,-35.434726,149.085969,488,697,-0.2994269340974212
40,1046,Barr Smith Av after Salas St,-35.42673,149.074178,488,809,-0.3962962962962963
41,1047,Barr Smith Av after Don Dunstan Dr,-35.426899,149.074185,517,828,-0.3751507840772014
42,1052,Barr Smith Av opp Hurtle Av,-35.431101,149.08000800000002,488,809,-0.3962962962962963
43,1053,Barr Smith Av after Hurtle Av,-35.431263,149.08006,517,828,-0.3751507840772014
44,1054,Hurtle Av opp Ebenezer St,-35.434405,149.08358700000002,488,697,-0.2994269340974212
45,1055,Hurtle Av after Ebenezer St,-35.433937,149.08288100000001,517,724,-0.28551724137931034
46,1056,Hurtle Av opp Bonython PS,-35.432126000000004,149.08231,517,724,-0.28551724137931034
47,1057,Bonython PS Hurtle Av,-35.431441,149.082295,488,697,-0.2994269340974212
48,1059,Homeworld Soward Way,-35.418682000000004,149.067883,2583,4787,-0.4603174603174603
49,1060,Boddington Cr before Reynell Pl,-35.379517,149.055117,213,124,0.712
50,1061,Soward Way after Anketell St,-35.417271,149.070695,1575,2373,-0.33614153327716934
51,1062,Soward Way before Anketell St,-35.417379,149.070745,1582,2413,-0.34424192212096105
52,1063,Tuggeranong Bus Depot Scollay St,-35.422657,149.06973,517,890,-0.4186307519640853
53,1064,Scollay St opp Tuggeranong Bus Depot,-35.421808,149.069227,488,871,-0.43922018348623854
54,1065,Anketell St before Oakden St,-35.422697,149.072912,481,933,-0.48394004282655245
55,1066,Anketell St before Athllon Dr,-35.423711,149.07387,491,906,-0.45755237045203967
56,1067,Anketell St opp Tuggeranong Square,-35.419798,149.070847,491,918,-0.4646354733405876
57,1068,Tuggeranong Square Anketell St,-35.419976,149.070832,481,933,-0.48394004282655245
58,1069,Ellerston Av before Noorooma St,-35.430392,149.08816000000002,231,596,-0.6113902847571189
59,1070,Ellerston Av opp Noorooma St,-35.430127,149.088257,234,579,-0.5948275862068966
60,1071,Ellerston Av after Keverstone Cct,-35.431594,149.088799,231,596,-0.6113902847571189
61,1072,Ellerston Av opp Keverstone Cct,-35.431554999999996,149.088905,234,579,-0.5948275862068966
62,1073,Ellerston Av after Jasper Cl,-35.431903000000005,149.09237099999999,231,596,-0.6113902847571189
63,1074,Ellerston Av before 2nd Kadina Cr,-35.431674,149.092063,234,579,-0.5948275862068966
64,1075,Ellerston Av after Johnston Dr,-35.433965,149.094672,231,596,-0.6113902847571189
65,1076,Ellerston Av before Johnson Dr,-35.433781,149.094651,234,579,-0.5948275862068966
66,1077,Outtrim Av before Duggan St,-35.435753000000005,149.09866499999998,491,531,-0.07518796992481203
67,1078,Outtrim Av opp Duggan St,-35.435688,149.09841,488,525,-0.07034220532319392
68,1079,Outtrim Av before 2nd Carter Cr,-35.435899,149.102015,488,525,-0.07034220532319392
69,1080,Outtrim Av after Gurr St,-35.435978999999996,149.101939,491,531,-0.07518796992481203
70,1081,Outtrim Av after 2nd Carter Cr,-35.436062,149.104675,488,525,-0.07034220532319392
71,1082,Outtrim Av before Gurr St,-35.436087,149.10483200000002,491,531,-0.07518796992481203
72,1083,Outtrim Av after Costello Cct,-35.435623,149.109478,488,525,-0.07034220532319392
73,1084,Outtrim Av after Mountain Cct,-35.435705,149.109488,491,531,-0.07518796992481203
74,1085,Calwell PS Casey Cr,-35.438693,149.110352,237,473,-0.4978902953586498
75,1086,Casey Cr opp Calwell PS,-35.43858,149.11041200000003,234,484,-0.5154639175257731
76,1089,Casey Cr after O'Connor Cct,-35.440019,149.11313700000002,234,468,-0.4989339019189765
77,1090,Casey Cr opp O'Connor Cct,-35.439958000000004,149.113233,231,480,-0.5176715176715176
78,1091,Calwell Park & Ride Johnson Dr,-35.433499,149.111284,488,790,-0.38179519595448796
79,1092,Casey Cr opp Calwell HS,-35.441119,149.115918,234,470,-0.5010615711252654
80,1093,Johnson Dr Opp Calwell Park & Ride,-35.433209999999995,149.112594,231,431,-0.46296296296296297
81,1094,St Francis of Assisi PS Casey Cr,-35.441065,149.11888100000002,240,474,-0.4926315789473684
82,1095,Were St before Tharwa Dr,-35.440384,149.12072,231,480,-0.5176715176715176
83,1096,Were St after Tharwa Dr,-35.440535,149.120676,234,468,-0.4989339019189765
84,1109,Louis Loder St at 1st Vonwiller Cr,-35.445646,149.116782,234,465,-0.4957081545064378
85,1110,Louis Loder St before 2nd Hartung Cr,-35.445576,149.11667,231,476,-0.5136268343815513
86,1111,Louis Loder St after 2nd Mehaffey Cr,-35.446537,149.114521,231,476,-0.5136268343815513
87,1112,Louis Loder St opp 1st Hartung Cr,-35.446523,149.114891,234,465,-0.4957081545064378
88,1113,Louis Loder St after 1st Cochrane Cr,-35.44801,149.115224,234,465,-0.4957081545064378
89,1114,44 Louis Loder St,-35.448128000000004,149.115262,231,476,-0.5136268343815513
90,1115,Louis Loder St before 2nd Vonwiller Cr,-35.450545,149.117412,234,465,-0.4957081545064378
91,1116,Louis Loder St at 2nd Conlon Cr,-35.450595,149.117269,231,476,-0.5136268343815513
92,1117,Clift Cr before Johnson Dr,-35.43325,149.118429,231,421,-0.45023696682464454
93,1118,Clift Cr after Johnson Dr,-35.433112,149.11822800000002,231,423,-0.4528301886792453
94,1119,Clift Cr after 2nd Chauncy Cr,-35.431157,149.119171,231,423,-0.4528301886792453
95,1120,Clift Cr after 1st Fullerton Cr,-35.431117,149.119349,231,421,-0.45023696682464454
96,1121,Deamer Cr before Meeson St,-35.429241,149.12143899999998,227,373,-0.39037433155080214
97,1122,Deamer Cr before Clift Cr,-35.429355,149.12094199999999,238,388,-0.3856041131105398
98,1123,Deamer Cr before 2nd Twamley Cr,-35.430849,149.123538,227,373,-0.39037433155080214
99,1124,Deamer Cr opp 1st Twamley Cr,-35.430915,149.123421,238,388,-0.3856041131105398
100,1125,69 Deamer Cr,-35.431494,149.127065,227,373,-0.39037433155080214
101,1126,Deamer Cr opp 69,-35.431723999999996,149.126983,238,388,-0.3856041131105398
102,1127,Deamer Cr opp 1st Nina Jones Cr,-35.429424,149.128794,227,373,-0.39037433155080214
103,1128,Deamer Cr after 2nd Nina Jones Cr,-35.429786,149.128673,238,388,-0.3856041131105398
104,1129,Deamer Cr after Heagney Cr,-35.427319,149.129802,238,388,-0.3856041131105398
105,1130,Deamer Cr before Heagney Cr,-35.427189,149.12961299999998,227,373,-0.39037433155080214
106,1131,Heagney Cr before Deamer Cr,-35.426486,149.130996,238,388,-0.3856041131105398
107,1132,Heagney Cr opp Deamer Cr,-35.426567,149.130245,227,373,-0.39037433155080214
108,1133,Heagney Cr before 2nd Couchman Cr,-35.424588,149.13321200000001,238,388,-0.3856041131105398
109,1134,Heagney Cr before Enid Lorimer Cct,-35.424695,149.133027,227,373,-0.39037433155080214
110,1135,Heagney Cr before 1st Couchman Cr,-35.423045,149.13492,238,388,-0.3856041131105398
111,1136,Heagney Cr after Enid Lorimer Cct,-35.423025,149.13453,227,373,-0.39037433155080214
112,1137,Heagney Cr after 1st Henry Melville Cr,-35.421378999999995,149.13599399999998,238,388,-0.3856041131105398
113,1138,Heagney Cr after 2nd Emily Bulcock Cr,-35.420927,149.136018,227,373,-0.39037433155080214
114,1139,Heagney Cr opp Gilmore PS,-35.419229,149.136097,238,388,-0.3856041131105398
115,1140,Gilmore PS Heagney Cr,-35.419093,149.135985,227,373,-0.39037433155080214
116,1143,Proctor St opp Maclean St,-35.415211,149.12515,247,379,-0.3473684210526316
117,1144,Proctor St after MacLean St,-35.415327000000005,149.125257,255,393,-0.350253807106599
118,1147,Chisholm Shops Benham St,-35.414421000000004,149.129066,470,820,-0.42630937880633374
119,1148,Benham St opp Chisholm Shops,-35.414484,149.129233,736,1166,-0.3684661525278492
120,1149,Coyne St before Carson St,-35.409005,149.127953,469,756,-0.37912813738441214
121,1150,Coyne St opp Carson St,-35.409158000000005,149.127772,458,728,-0.37037037037037035
122,1151,19 Coyne St,-35.409167,149.123106,469,756,-0.37912813738441214
123,1152,Coyne St opp 19,-35.409226000000004,149.122726,458,728,-0.37037037037037035
124,1153,Bugden Av before 2nd Larcombe Cr,-35.406964,149.12043300000002,227,433,-0.47465437788018433
125,1154,Bugden Av before Coyne St,-35.406757,149.120472,238,443,-0.4617117117117117
126,1155,Bugden Av before 2nd Demaine Cr,-35.404229,149.122455,227,433,-0.47465437788018433
127,1156,Bugden Av after Fihelly St,-35.404353,149.121963,238,443,-0.4617117117117117
128,1157,Bugden Av before 1st Mullan St,-35.402395,149.124135,227,433,-0.47465437788018433
129,1158,Bugden Av opp 2nd Mullan St,-35.401231,149.123513,238,443,-0.4617117117117117
130,1159,Bugden Av after 2nd Mullan St,-35.398518,149.122122,227,433,-0.47465437788018433
131,1160,Bugden Av opp 309,-35.398621,149.12225700000002,238,443,-0.4617117117117117
132,1161,Bugden Av after 1st Dash Cr,-35.400242,149.115685,227,433,-0.47465437788018433
133,1162,Bugden Av after Partridge St,-35.401436,149.114272,227,396,-0.4256926952141058
134,1163,Bugden Av opp 2nd Maughan Cr,-35.40132,149.112769,238,429,-0.4441860465116279
135,1164,Bugden Av before 2nd Maughan Cr,-35.401832,149.110301,227,396,-0.4256926952141058
136,1165,Bugden Av after 1st Appel Cr,-35.401708,149.11004499999999,238,429,-0.4441860465116279
137,1166,Bugden Av after Sternberg Cr,-35.40265,149.107483,238,429,-0.4441860465116279
138,1167,Bugden Av before Sternberg Cr,-35.402691,149.10755600000002,227,396,-0.4256926952141058
139,1168,Bugden Av before 2nd Appel Cr,-35.39954,149.115823,238,443,-0.4617117117117117
140,1170,Sternberg Cr after Erindale Dr,-35.402260999999996,149.103288,227,402,-0.43424317617866004
141,1171,Sternberg Cr after Ashley Dr,-35.401941,149.100575,664,782,-0.15070242656449553
142,1172,Erindale Interchange Plt 1,-35.403649,149.099162,1193,2392,-0.501044713748433
143,1173,Erindale Interchange Plt 2,-35.404053000000005,149.09928200000002,1595,2785,-0.4271356783919598
144,1174,Sternberg Cr before Maltby Cct,-35.401992,149.102749,238,416,-0.42685851318944845
145,1176,Erindale College McBryde Cr,-35.403907000000004,149.095995,467,872,-0.4639175257731959
146,1177,McBryde Cr opp Erindale College,-35.404224,149.096148,465,885,-0.47404063205417607
147,1178,Amsinck St after McBryde Cr,-35.405553999999995,149.093547,234,513,-0.5428015564202334
148,1179,Amsinck St before McBryde Cr,-35.405601000000004,149.093296,236,505,-0.5316205533596838
149,1180,MacKillop College McBryde Cr,-35.406139,149.09058100000001,231,497,-0.5341365461847389
150,1181,McBryde Cr opp MacKillop College,-35.406264,149.090564,231,502,-0.5387673956262425
151,1182,Woodcock Dr before Clare Dennis Av,-35.441863,149.086183,253,508,-0.5009823182711198
152,1183,Woodcock Dr opp Clare Dennis Av,-35.441691999999996,149.086154,274,529,-0.4811320754716981
153,1184,Clare Dennis Av before Armbruster St,-35.443044,149.085974,253,516,-0.5087040618955513
154,1185,Clare Dennis Av before 1st Fred Ln Cr,-35.445159000000004,149.0878,253,516,-0.5087040618955513
155,1186,Clare Dennis Av before 2nd Fred Ln Cr,-35.446768,149.086077,253,516,-0.5087040618955513
156,1187,Clare Dennis Av before Preddey Way,-35.447089,149.08383999999998,253,516,-0.5087040618955513
157,1188,Lewis Luxton Av after Preddy Way,-35.448402,149.086122,253,516,-0.5087040618955513
158,1189,Lewis Luxton Av opp Blinkhorn Pl,-35.450435999999996,149.08909,253,516,-0.5087040618955513
159,1190,Lewis Luxton Av opp 2nd Cerutty Cr,-35.452903000000006,149.08796999999998,253,516,-0.5087040618955513
160,1191,Knoke Av opp Gordon PS,-35.458121000000006,149.086118,274,538,-0.4897959183673469
161,1192,Knoke Av before Oxenham Cct,-35.460578000000005,149.08565900000002,274,538,-0.4897959183673469
162,1193,Knoke Av after Jim Pike Av,-35.462281,149.083208,274,538,-0.4897959183673469
163,1194,Jim Pike Av before Clem Hill St,-35.462016,149.079911,527,1056,-0.5004730368968779
164,1195,Callaway Cr at 1st Myles Connell Cr,-35.459068,149.080047,527,1056,-0.5004730368968779
165,1196,39 Callaway Cr,-35.460035999999995,149.081737,527,1056,-0.5004730368968779
166,1197,Bugden Av after 2nd Chataway Cr,-35.398638,149.117563,227,433,-0.47465437788018433
167,1198,Bugden Av opp 1st Chataway Cr,-35.398045,149.118252,238,443,-0.4617117117117117
168,1199,Knoke Av after Clem Hill St,-35.464786,149.08418799999998,274,538,-0.4897959183673469
169,1200,Knoke Av after 2nd Harry Hopman Cct,-35.467259000000006,149.087641,274,538,-0.4897959183673469
170,1201,Knoke Av after 1st Harry Hopman Cct,-35.472807,149.089281,274,538,-0.4897959183673469
171,1202,Pockett Av after Bellchambers Cr,-35.474078000000006,149.093168,274,537,-0.4888475836431227
172,1203,Pockett Av after Wilson Cr,-35.471702,149.096924,536,1046,-0.4871060171919771
173,1204,Pockett Av after 2nd Ironbark Cr,-35.469475,149.097634,274,536,-0.48789571694599626
174,1205,Pockett Av after Perrin Cct,-35.467558000000004,149.09536200000002,274,536,-0.48789571694599626
175,1206,Pockett Av before Thomas Hart St,-35.46528,149.094099,274,536,-0.48789571694599626
176,1207,Tom Roberts Av before Box Hill Av,-35.463823,149.096494,269,539,-0.5
177,1208,Tom Roberts Av opp Charles Conder PS,-35.465324,149.098411,269,539,-0.5
178,1210,Tom Roberts Av before Jane Sutherland St,-35.466303,149.10560700000002,269,540,-0.5009242144177449
179,1211,Tom Roberts Av before 1st Templestowe Av,-35.462228,149.10519299999999,269,540,-0.5009242144177449
180,1212,Tom Roberts Av opp John Russell Cct,-35.461222,149.10220800000002,269,540,-0.5009242144177449
181,1213,Tom Roberts Av after Box Hill Av,-35.460419,149.099253,269,540,-0.5009242144177449
182,1214,Tom Roberts Av after 1st Beaumaris St,-35.466403,149.10041999999999,262,512,-0.4873294346978557
183,1215,Box Hill Av opp Lanyon Marketplace,-35.456171000000005,149.09249499999999,805,1598,-0.4959349593495935
184,1216,Box Hill Av opp St Clare of Assisi PS,-35.457716,149.097362,805,1582,-0.490840176879343
185,1217,Lanyon Marketplace Box Hill Av,-35.456354,149.09246299999998,762,1347,-0.43397626112759646
186,1218,St Clare of Assisi PS Box Hill Av,-35.457981,149.097464,784,1561,-0.4974391805377721
187,1219,Tom Roberts Av before Box Hill Av,-35.46047,149.09901499999998,262,514,-0.4893203883495146
188,1220,Tom Roberts Av before Altson Cct,-35.461296999999995,149.10181,262,514,-0.4893203883495146
189,1221,Tom Roberts Av before Lethbridge St,-35.462199,149.104985,262,514,-0.4893203883495146
190,1223,Charles Conder PS Tom Roberts Av,-35.464853999999995,149.097978,262,512,-0.4873294346978557
191,1224,Pockett Av before Box Hill Av,-35.464987,149.093953,253,515,-0.5077519379844961
192,1225,Pockett Av before 2nd Tregellas Cr,-35.46759,149.095269,253,515,-0.5077519379844961
193,1226,Pockett Av opp Wiburd St,-35.470394,149.097662,522,1052,-0.50332383665717
194,1227,Banks Shops Pockett Av,-35.472431,149.095951,522,1052,-0.50332383665717
195,1228,Pockett Av before Brockway Cct,-35.473496999999995,149.091731,253,516,-0.5087040618955513
196,1229,Knoke Av after Coventry Cl,-35.472849,149.08945400000002,253,518,-0.5105973025048169
197,1230,Knoke Av after Minnett Cl,-35.470765,149.088898,253,518,-0.5105973025048169
198,1231,Knoke Av opp O'Hara Cl,-35.470876000000004,149.088786,274,538,-0.4897959183673469
199,1232,Knoke Av before 2nd Mina Wylie Cr,-35.467176,149.087682,253,518,-0.5105973025048169
200,1233,Knoke Av before Matson St,-35.46567,149.085585,253,518,-0.5105973025048169
201,1234,Knoke Av opp Jim Pike Av,-35.461984,149.08364699999998,253,518,-0.5105973025048169
202,1235,Knoke Av after Midge St,-35.460663000000004,149.085728,253,518,-0.5105973025048169
203,1237,Lewis Luxton Av before 1st Cerutty Cr,-35.452995,149.087346,274,537,-0.4888475836431227
204,1238,Lewis Luxton Av before Blinkhorn Pl,-35.450896,149.089342,274,537,-0.4888475836431227
205,1239,61 Lewis Luxton Av,-35.448733000000004,149.087143,274,537,-0.4888475836431227
206,1240,Preddy Way at Fingleton Cr,-35.448164,149.084205,274,537,-0.4888475836431227
207,1241,Clare Dennis Av before 2nd Noel Ryan Gdn,-35.446543,149.085447,274,537,-0.4888475836431227
208,1242,Clare Dennis Av opp Churchill Way,-35.444641,149.087167,274,537,-0.4888475836431227
209,1243,Clare Dennis Av after Woodfull Lp,-35.44312,149.085845,274,537,-0.4888475836431227
210,1246,Cooleman Court Terminus,-35.340841999999995,149.05234099999998,459,960,-0.5213319458896982
211,1248,Streeton Dr before 1st Fremantle Dr,-35.34468,149.047096,247,444,-0.44269662921348313
212,1249,Streeton Dr before Hindmarsh Dr,-35.344613,149.04703600000002,250,443,-0.4346846846846847
213,1250,Fremantle Dr after Streeton Dr,-35.346407,149.04693600000002,247,444,-0.44269662921348313
214,1251,Fremantle Dr before Streeton Dr,-35.3466,149.047038,250,443,-0.4346846846846847
215,1252,Fremantle Dr before Bunbury St,-35.348284,149.049235,247,444,-0.44269662921348313
216,1253,Fremantle Dr opp 1st McKail Cr,-35.347359999999995,149.048194,250,443,-0.4346846846846847
217,1258,Namatjira Dr opp St John Vianney,-35.352146000000005,149.053761,416,388,0.07197943444730077
218,1259,Namatjira Dr after Streeton Dr,-35.355188,149.050493,663,833,-0.2038369304556355
219,1260,St John Vianney Namatjira Dr,-35.351921999999995,149.05415,423,394,0.07341772151898734
220,1261,Tom Roberts Av after Wiburd St,-35.466561,149.100512,269,539,-0.5
221,1262,Wiburd St before Pockett Av,-35.469931,149.098659,262,510,-0.48532289628180036
222,1263,Namatjira Dr after Badimara St,-35.355115000000005,149.050801,673,840,-0.1985731272294887
223,1264,Namatjira Dr opp Perry Dr,-35.35848,149.047931,625,800,-0.2184769038701623
224,1265,Namatjira Dr before Kapunda St,-35.360591,149.047806,423,395,0.0707070707070707
225,1266,Namatjira Dr opp 204,-35.363484,149.04971899999998,423,395,0.0707070707070707
226,1267,241 Namatjira Dr,-35.366088,149.051516,423,395,0.0707070707070707
227,1268,Namatjira Dr opp 241,-35.366007,149.051368,416,389,0.06923076923076923
228,1269,Namatjira Dr after Perry Dr,-35.358207,149.047876,616,804,-0.23354037267080746
229,1270,Namatjira Dr before Perry Dr,-35.360443,149.04765700000002,416,389,0.06923076923076923
230,1271,204 Namatjira Dr,-35.363559,149.049614,416,389,0.06923076923076923
231,1272,Kambah Pool Rd after Sulwood Dr,-35.375136,149.048963,423,603,-0.2980132450331126
232,1273,Kambah Pool Rd after Barritt St,-35.37534,149.04861499999998,416,603,-0.30960264900662254
233,1274,Barritt St after Kambah Pool Rd,-35.377990999999994,149.048365,423,607,-0.3026315789473684
234,1275,Barritt St before Kambah Pool Rd,-35.378093,149.048299,416,608,-0.31527093596059114
235,1276,Barritt St before Boddington Cr,-35.380209,149.05186,423,607,-0.3026315789473684
236,1277,Barritt St after Boddington Cr,-35.379861,149.051195,416,608,-0.31527093596059114
237,1278,Boddington Cr before Barritt St,-35.381211,149.05177700000002,203,420,-0.5154394299287411
238,1279,Boddington Cr after Carleton St,-35.382090999999996,149.051152,203,421,-0.5165876777251185
239,1280,Boddington Cr opp Carleton St,-35.382089,149.05128100000002,210,420,-0.498812351543943
240,1281,Boddington Cr before 1st Castley Cct,-35.385031,149.05056399999998,210,420,-0.498812351543943
241,1282,Boddington Cr after 2nd Crozier Cct,-35.385778,149.05041599999998,203,421,-0.5165876777251185
242,1283,Boddington Cr after 2nd Castley Cct,-35.389283,149.05164299999998,210,420,-0.498812351543943
243,1284,Boddington Cr after Bateman St,-35.389192,149.051368,203,421,-0.5165876777251185
244,1285,Boddington Cr opp McLeod Pl,-35.390043,149.05365600000002,210,420,-0.498812351543943
245,1286,Boddington Cr opp Broad Pl,-35.389199,149.056659,210,420,-0.498812351543943
246,1287,Boddington Cr after McLeod Pl,-35.390316,149.053797,203,421,-0.5165876777251185
247,1288,Boddington Cr before Broad Pl,-35.389395,149.05715800000002,203,421,-0.5165876777251185
248,1289,O'Halloran Cct opp Boddington Cr,-35.390376,149.05903600000002,210,420,-0.498812351543943
249,1290,O'Halloran Cct before Boddington Cr,-35.390364,149.058859,203,421,-0.5165876777251185
250,1291,O'Halloran Cct after 2nd Springbett St,-35.392912,149.058194,210,420,-0.498812351543943
251,1292,O'Halloran Cct before 2nd McKillop Cct,-35.393119,149.058008,203,421,-0.5165876777251185
252,1293,O'Halloran Cct before 1st Snodgrass Cr,-35.395621999999996,149.059255,210,420,-0.498812351543943
253,1294,O'Halloran Cct opp 2nd Snodgrass Cr,-35.395814,149.059279,203,421,-0.5165876777251185
254,1295,O'Halloran Cct before Vansittart Cr,-35.395790000000005,149.06288600000002,210,420,-0.498812351543943
255,1296,O'Halloran Cct after Vansittart Cr,-35.395919,149.062892,203,421,-0.5165876777251185
256,1297,O'Halloran Cct before Ashby Cct,-35.394099,149.065924,416,833,-0.5
257,1298,O'Halloran Cct opp Ashby Cct,-35.393972,149.065792,423,831,-0.49038461538461536
258,1299,O'Halloran Cct opp Namadgi School,-35.393073,149.067676,416,835,-0.5011961722488039
259,13,Tuggeranong Interchange Arrivals,-35.414955,149.06608,3655,6330,-0.4225240878218291
260,1300,Namadgi School O'Halloran Cct,-35.392579,149.068207,423,831,-0.49038461538461536
261,1301,Summerland Cct after Vanzetti Cr,-35.391096000000005,149.071581,213,419,-0.49047619047619045
262,1302,Summerland Cct before 1st Kingsmill St,-35.390978999999994,149.071495,213,414,-0.4843373493975904
263,1303,Summerland Cct before 2nd Kingsmill St,-35.390028,149.073554,213,414,-0.4843373493975904
264,1304,Summerland Cct after Livingston Av,-35.390173,149.073483,213,419,-0.49047619047619045
265,1319,Wheeler Cr before Wanniassa HS,-35.394195,149.08436899999998,234,212,0.10328638497652583
266,1320,St Anthonys PS Wheeler Cr,-35.394895,149.080012,234,206,0.13526570048309178
267,1321,Wheeler Cr after Wanniassa HS,-35.394279,149.08497,236,211,0.1179245283018868
268,1322,Wheeler Cr opp St Anthonys PS,-35.394982,149.079947,236,209,0.12857142857142856
269,1323,Fincham Cr after Morrissey St,-35.396159999999995,149.078911,234,434,-0.45977011494252873
270,1324,Fincham Cr after Wheeler Cr,-35.3963,149.079126,236,448,-0.47216035634743875
271,1325,Fincham Cr before Stutt St,-35.398613,149.080301,236,448,-0.47216035634743875
272,1326,Fincham Cr after 1st DeGraves Cr,-35.398902,149.08051799999998,234,434,-0.45977011494252873
273,1327,Forlonge St after Fincham Cr,-35.401053999999995,149.081262,236,312,-0.24281150159744408
274,1328,Forlonge St before Gair Pl,-35.401413,149.080926,234,303,-0.22697368421052633
275,1335,Sternberg Cr opp Houston St,-35.402386,149.09281000000001,236,876,-0.7297605473204105
276,1336,Sternberg Cr opp Whiteman Cr,-35.4012,149.09498200000002,236,876,-0.7297605473204105
277,1337,Sternberg Cr before Houston St,-35.40235,149.09272099999998,234,884,-0.7344632768361582
278,1338,Sternberg Cr after Whiteman St,-35.401034,149.095201,234,884,-0.7344632768361582
279,1339,Sternberg Cr after Langdon Av,-35.401439,149.098251,725,1822,-0.6017553483269337
280,1340,Sternberg Cr after Comrie St,-35.401696,149.098671,724,1778,-0.5924676784710512
281,1341,Drakeford Dr after Boddington Cr,-35.377342999999996,149.056195,24,293,-0.9149659863945578
282,1342,Drakeford Dr before Marconi Cr,-35.377347,149.056592,24,301,-0.9172185430463576
283,1343,Marconi Cr opp Kambah Village,-35.378927000000004,149.057634,213,418,-0.4892601431980907
284,1344,Kambah Village Marconi Cr,-35.379135999999995,149.057769,213,414,-0.4843373493975904
285,1345,Marconi Cr before 2nd Harrington Cct,-35.377833,149.06063600000002,213,419,-0.49047619047619045
286,1346,Marconi Cr after Wyselaskie Cct,-35.378267,149.06011,213,414,-0.4843373493975904
287,1347,Marconi Cr opp Taylor PS,-35.377614,149.064032,213,419,-0.49047619047619045
288,1348,Taylor PS Marconi Cr,-35.377741,149.06406,213,414,-0.4843373493975904
289,1349,Marconi Cr after 2nd Lascelles Cct,-35.378684,149.065348,213,414,-0.4843373493975904
290,1350,Marconi Cr after Inkster St,-35.378728,149.06549099999998,213,419,-0.49047619047619045
291,1351,Marconi Cr after 1st Lascelles Cct,-35.381701,149.065314,213,414,-0.4843373493975904
292,1352,Marconi Cr after Hutchison Cr,-35.381402,149.065583,213,419,-0.49047619047619045
293,1353,Summerland Cct before Hutchison Cr,-35.383371999999994,149.06747,213,419,-0.49047619047619045
294,1354,Summerland Cct opp Hutchison Cr,-35.383463,149.067486,213,414,-0.4843373493975904
295,1355,Summerland Cct before Mannheim St,-35.384914,149.070892,213,419,-0.49047619047619045
296,1356,Summerland Cct before 1st Gallagher St,-35.385020000000004,149.071134,213,414,-0.4843373493975904
297,1357,Summerland Cct after 2nd Lee-Steere Cr,-35.387624,149.075039,213,419,-0.49047619047619045
298,1358,Summerland Cct opp 1st Lee-Steere Cr,-35.387515,149.074926,213,414,-0.4843373493975904
299,1359,Langdon Av after Dyer Pl,-35.392409,149.089645,488,804,-0.39254658385093166
300,1360,Langdon Av after Macbain St,-35.392319,149.089323,491,822,-0.402187120291616
301,1361,Langdon Av before Carr Cr,-35.392568,149.093016,491,822,-0.402187120291616
302,1362,Langdon Av before Billson Pl,-35.392174,149.09368500000002,488,804,-0.39254658385093166
303,1363,Wanniassa Hills PS Langdon Av,-35.392151,149.095783,488,804,-0.39254658385093166
304,1364,Langdon Av opp Wanniassa Hills PS,-35.392879,149.09656,491,822,-0.402187120291616
305,1365,Langdon Av after Gaunson Cr,-35.396342,149.09638700000002,491,822,-0.402187120291616
306,1366,Langdon Av after Kirkton St,-35.396096,149.09623100000002,488,804,-0.39254658385093166
307,1367,Langdon Av before 2nd Brunton St,-35.397873,149.09741699999998,488,944,-0.48253968253968255
308,1368,Langdon Av before Longmore Cr,-35.397754,149.09741599999998,491,957,-0.48643006263048016
309,1369,Langdon Av before Embling St,-35.40037,149.097398,488,902,-0.4584717607973422
310,1370,Langdon Av before Bussau Cl,-35.400017,149.097735,491,938,-0.476038338658147
311,1371,Drakeford Dr after Mortimer Lewis Dr,-35.402577,149.074423,227,459,-0.5043478260869565
312,1372,Drakeford Dr before Taverner St,-35.401228,149.074572,234,464,-0.4946236559139785
313,1373,Drakeford Dr after Taverner St,-35.408028,149.07353899999998,234,464,-0.4946236559139785
314,1374,Drakeford Dr after Soward Way,-35.408348,149.07307600000001,227,459,-0.5043478260869565
315,1375,Athllon Dr before Reed St,-35.418158,149.064405,2554,4794,-0.46715328467153283
316,1376,Hindmarsh Dr after Ball St,-35.348742,149.08783,1079,2207,-0.5108695652173914
317,1400,Newman-Morris Cct opp 2nd Connibere Cr,-35.407481,149.0757,236,446,-0.4697986577181208
318,1401,Newman-Morris Cct before 1st Connibere Cr,-35.407218,149.07568999999998,234,438,-0.4646924829157175
319,1402,Newman-Morris Cct before 1st Singleton Cr,-35.410852,149.075058,234,438,-0.4646924829157175
320,1403,77 Newman-Morris Cct,-35.410988,149.075168,236,446,-0.4697986577181208
321,1404,Newman-Morris Cct after 1st Collocott Cr,-35.413455,149.07607099999998,234,438,-0.4646924829157175
322,1405,Newman-Morris Cct opp 2nd Collocott Cr,-35.413534999999996,149.076332,236,446,-0.4697986577181208
323,1406,Newman-Morris Cct before 2nd Cuthbertson Cr,-35.412838,149.079376,236,446,-0.4697986577181208
324,1407,Newman-Morris Cct before 2nd Maconochie Cr,-35.413294,149.078626,234,438,-0.4646924829157175
325,1408,Lakeside Leisure Centre Anketell St,-35.41215,149.063186,1075,2488,-0.5676978706307754
326,1409,Learmonth Dr after Vansittart Cr,-35.401969,149.060866,213,414,-0.4843373493975904
327,1410,Learmonth Dr opp Vansittart Cr,-35.402084,149.060775,213,411,-0.48058252427184467
328,1411,Vansittart Cr after 1st Stieglitz Cct,-35.400156,149.062603,213,414,-0.4843373493975904
329,1412,Vansittart Cr after 1st Ragless Cct,-35.400089,149.06246399999998,213,411,-0.48058252427184467
330,1413,Learmonth Dr after Athllon Dr,-35.403181,149.063357,213,411,-0.48058252427184467
331,1414,Learmonth Dr before Athllon Dr,-35.403084,149.06351999999998,213,414,-0.4843373493975904
332,1415,Vansittart Cr opp Pinkerton Cct,-35.397225,149.064054,213,411,-0.48058252427184467
333,1416,Vansittart Cr before Pinkerton Cct,-35.397462,149.064247,213,414,-0.4843373493975904
334,1417,Tuggeranong Pkwy after Sulwood Dr,-35.373045,149.056882,24,507,-0.9507874015748031
335,1418,Tuggeranong Pkwy before Sulwood Dr,-35.372603999999995,149.057409,24,275,-0.9094202898550725
336,1435,Clive Steele Av before 2nd Priddle St,-35.410718,149.100686,206,441,-0.5316742081447964
337,1436,Clive Steele Av opp 1st Priddle St,-35.410892,149.100719,206,440,-0.5306122448979592
338,1437,Clive Steele Av opp 2nd Brain St,-35.41236,149.100027,206,441,-0.5316742081447964
339,1438,Clive Steele Av before 2nd Brain St,-35.412884999999996,149.099366,206,440,-0.5306122448979592
340,1439,Clive Steele Av before 2nd Fraenkel St,-35.414112,149.09704299999999,206,441,-0.5316742081447964
341,1440,Clive Steele Av before 2nd Coode St,-35.414441,149.09673999999998,206,440,-0.5306122448979592
342,1441,Monash Shops Cockcroft Av,-35.417059,149.098237,206,309,-0.33225806451612905
343,1442,Cockcroft Av opp Monash Shops,-35.416742,149.098198,206,305,-0.3235294117647059
344,1443,Cockcroft Av before Kneeshaw St,-35.419885,149.097304,206,309,-0.33225806451612905
345,1444,Goodwin Aged Care Cockcroft Av,-35.419751,149.09704299999999,206,305,-0.3235294117647059
346,1445,Charleston St after 2nd William Hudson Cr,-35.416281,149.079178,440,757,-0.4182058047493404
347,1446,Charleston St after Blakey Cl,-35.416263,149.07936,442,731,-0.3948087431693989
348,1447,Charleston St before 1st William Hudson Cr,-35.418192,149.082438,440,757,-0.4182058047493404
349,1448,Charleston St after Hallstrom Cct,-35.41809,149.082409,442,731,-0.3948087431693989
350,1449,Clive Steele Av before 1st Balsillie Cr,-35.416677,149.086218,236,440,-0.46258503401360546
351,1450,Clive Steele Av opp 2nd Balsillie Cr,-35.41661,149.086533,234,448,-0.4766146993318486
352,1451,Clive Steele Av before 2nd Balsillie Cr,-35.416239000000004,149.088005,236,440,-0.46258503401360546
353,1452,Clive Steele Av before Harkness St,-35.416298,149.088358,234,448,-0.4766146993318486
354,1453,Monash PS Corlette Cr,-35.41534,149.08956899999998,234,447,-0.47544642857142855
355,1454,Corlette Cr after Hebblewhite St,-35.414164,149.087577,234,447,-0.47544642857142855
356,1456,Corlette Cr opp Monash PS,-35.414787,149.088975,236,439,-0.46136363636363636
357,1457,Corlette Cr opp Hebblewhite St,-35.414229,149.08727199999998,236,439,-0.46136363636363636
358,1458,Hebblewhite St after Forwood St,-35.411989,149.087664,234,447,-0.47544642857142855
359,1459,Hebblewhite St before Burnell Pl,-35.412096000000005,149.087407,236,439,-0.46136363636363636
360,1460,Harricks Cr after 1st Michell St,-35.410713,149.091178,234,447,-0.47544642857142855
361,1461,Harricks Cr after 1st Michell St,-35.410765000000005,149.09088300000002,236,439,-0.46136363636363636
362,1462,Harricks Cr after 1st Cracknell St,-35.408807,149.092679,234,447,-0.47544642857142855
363,1463,Harricks Cr opp 2nd Cracknell St,-35.408936,149.092449,236,439,-0.46136363636363636
364,1466,Wheeler Cr after Sternberg Cr,-35.402337,149.09178300000002,236,446,-0.4697986577181208
365,1467,Wheeler Cr before Hanna St,-35.400526,149.089227,236,446,-0.4697986577181208
366,1468,Wheeler Cr before Sternberg Cr,-35.402094,149.09179699999999,234,448,-0.4766146993318486
367,1469,Wheeler Cr opp Hanna St,-35.400409,149.089292,234,448,-0.4766146993318486
368,1470,Wheeler Cr after Guthridge Cr,-35.398153,149.088372,236,446,-0.4697986577181208
369,1471,Wheeler Cr after Kirkton St,-35.398117,149.088481,234,448,-0.4766146993318486
370,1472,Wanniassa HS Wheeler Cr,-35.394803,149.086693,236,299,-0.21
371,1473,Wheeler Cr opp Wanniassa HS,-35.394653000000005,149.086594,234,308,-0.23948220064724918
372,1486,Clift Cr after Ashley Dr,-35.424738,149.104019,474,582,-0.18524871355060035
373,1487,Clift Cr before Ashley Dr,-35.424896999999994,149.104043,493,615,-0.19805194805194806
374,1488,29 Clift Cr,-35.42628,149.107056,474,582,-0.18524871355060035
375,1489,Clift Cr opp 29,-35.426372,149.10704199999998,493,615,-0.19805194805194806
376,1490,Clift Cr before 2nd Kiddle Cr,-35.427562,149.109589,474,582,-0.18524871355060035
377,1491,Clift Cr opp 1st Kiddle Cr,-35.427624,149.10978,493,615,-0.19805194805194806
378,1492,Clift Cr before Heagney Cr,-35.426282,149.11228799999998,474,582,-0.18524871355060035
379,1493,Clift Cr opp Heagney Cr,-35.426308,149.112478,493,615,-0.19805194805194806
380,1494,Heagney Cr before Beattie Cr,-35.425383000000004,149.114077,478,634,-0.24566929133858267
381,1495,Heagney Cr before 2nd Mclorinan St,-35.425238,149.114285,486,650,-0.2519201228878648
382,1496,Beattie Cr before 2nd McBurney Cr,-35.422762,149.112019,247,385,-0.35751295336787564
383,1497,Beattie Cr before Swanton St,-35.423058000000005,149.112178,255,409,-0.375609756097561
384,1498,Beattie Cr after Hemmings Cr,-35.420984000000004,149.113621,247,385,-0.35751295336787564
385,1499,Beattie Cr opp Hemmings Cr,-35.420965,149.113865,255,409,-0.375609756097561
386,1500,Beattie Cr after Goldstein Cr,-35.418313,149.115569,255,409,-0.375609756097561
387,1501,Beattie Cr after 2nd Longman St,-35.418601,149.115219,247,385,-0.35751295336787564
388,1504,Gowrie Shops Castleton Cr,-35.41387,149.109327,206,433,-0.5230414746543779
389,1505,Castleton Cr opp Gowrie Shops,-35.414013,149.109397,206,410,-0.49635036496350365
390,1506,Castleton Cr after 2nd Wheatley St,-35.412065999999996,149.105807,206,433,-0.5230414746543779
391,1507,Castleton Cr opp 1st Wheatley St,-35.411981,149.105556,206,410,-0.49635036496350365
392,1508,Castleton Cr before Easterbrook Pl,-35.409963,149.10488600000002,206,410,-0.49635036496350365
393,1509,Castleton Cr opp Easterbrook Pl,-35.410090000000004,149.104967,206,433,-0.5230414746543779
394,1510,Castleton Cr after Farcomb Pl,-35.407348999999996,149.10646599999998,231,451,-0.48672566371681414
395,1511,Castleton Cr after Middleton Cct,-35.407182,149.106505,231,428,-0.4592074592074592
396,1512,Castleton Cr after Peeler Pl,-35.406056,149.11105600000002,231,427,-0.45794392523364486
397,1513,Castleton Cr before Wray Pl,-35.406197,149.111205,231,450,-0.48558758314855877
398,1529,Bugden Av after Mactier Pl,-35.414471,149.104533,206,416,-0.5035971223021583
399,1530,Bugden Av opp Denehy Pl,-35.414685,149.10460600000002,206,429,-0.5186046511627908
400,1531,Bugden Av after 1st Dalziel St,-35.417136,149.10485500000001,206,416,-0.5035971223021583
401,1532,Bugden Av after 1st Stacy St,-35.416934999999995,149.10478700000002,206,429,-0.5186046511627908
402,1533,Bugden Av after 2nd Dalziel St,-35.418079,149.10738500000002,206,416,-0.5035971223021583
403,1534,Bugden Av before 1st Ingram St,-35.417955,149.107856,206,429,-0.5186046511627908
404,1535,Bugden Av after Beardsmore Pl,-35.415811,149.10984,206,416,-0.5035971223021583
405,1536,Bugden Av before 2nd Galleghan Cct,-35.415728,149.110049,206,429,-0.5186046511627908
406,1537,Norriss St after 1st Woodburn St,-35.416852,149.117772,247,379,-0.3473684210526316
407,1538,Norriss St opp 2nd Woodburn St,-35.416911999999996,149.117961,255,393,-0.350253807106599
408,1539,Norriss St opp Caroline Chisholm Senior School,-35.416431,149.121032,247,379,-0.3473684210526316
409,1540,Caroline Chisholm Senior School Norriss St,-35.416575,149.120836,255,393,-0.350253807106599
410,1542,Hambidge Cr before Proctor St,-35.416041,149.130189,231,423,-0.4528301886792453
411,1543,Hambidge Cr opp 64,-35.418268,149.12721200000001,231,433,-0.46543778801843316
412,1544,64 Hambidge Cr,-35.418096999999996,149.12733500000002,231,423,-0.4528301886792453
413,1545,Hambidge Cr after 1st Alice Jackson Cr,-35.416602000000005,149.129855,231,433,-0.46543778801843316
414,1546,Baskerville St after Hambidge Cr,-35.41953,149.125425,231,370,-0.3746630727762803
415,1547,Baskerville St before Hambidge Cr,-35.419584,149.12533100000002,231,378,-0.38786279683377306
416,1548,Baskerville St before 1st Laughton St,-35.422051,149.12438999999998,231,378,-0.38786279683377306
417,1549,Baskerville St opp 2nd Laughton St,-35.421960999999996,149.124524,231,370,-0.3746630727762803
418,1550,Heagney Cr after Alston St,-35.424281,149.123477,231,378,-0.38786279683377306
419,1551,Heagney Cr after 1st Muntz St,-35.424407,149.123683,231,370,-0.3746630727762803
420,1552,Heagney Cr after Goldstein Cr,-35.424252,149.121332,231,378,-0.38786279683377306
421,1553,Heagney Cr before 1st Moffin St,-35.424343,149.121259,231,370,-0.3746630727762803
422,1554,Heagney Cr after 2nd Mofflin St,-35.424314,149.11744199999998,231,371,-0.3763440860215054
423,1555,Heagney Cr opp 2nd McLorinan St,-35.4242,149.117209,231,379,-0.3894736842105263
424,1556,Richardson Shops Clift Cr,-35.427259,149.115792,469,583,-0.1952054794520548
425,1557,Clift Cr opp Meeson St,-35.428668,149.118497,469,583,-0.1952054794520548
426,1558,Clift Cr before Meeson St,-35.428604,149.11858,458,566,-0.19047619047619047
427,1559,Clift Cr opp Richardson Shops,-35.427334,149.116004,458,566,-0.19047619047619047
428,1560,Louisa Lawson Cr before Gellatly Pl,-35.417691,149.137217,238,323,-0.2623456790123457
429,1561,Louisa Lawson Cr after 1st May Maxwell Cr,-35.4176,149.13726,227,308,-0.2621359223300971
430,1562,Louisa Lawson Cr after Fenston Pl,-35.416144,149.13943799999998,238,323,-0.2623456790123457
431,1563,Louisa Lawson Cr opp Fenston Pl,-35.416088,149.13935800000002,227,308,-0.2621359223300971
432,1564,Louisa Lawson Cr before 1st Aronson Cr,-35.412316,149.137509,227,308,-0.2621359223300971
433,1565,Louisa Lawson Cr after 2nd Willoughby Cr,-35.412259000000006,149.1374,238,323,-0.2623456790123457
434,1566,Louisa Lawson Cr before 2nd Willoughby Cr,-35.412511,149.135275,238,323,-0.2623456790123457
435,1567,Louisa Lawson Cr after 1st Aronson Cr,-35.412578,149.135104,227,308,-0.2621359223300971
436,1568,Louisa Lawson Cr before 2nd Aronson Cr,-35.413875,149.133002,227,308,-0.2621359223300971
437,1569,Louisa Lawson Cr before Litchfield Pl,-35.413853,149.132904,238,323,-0.2623456790123457
438,1576,Duggan St after Outtrim Av,-35.436524,149.09774299999998,234,466,-0.49678800856531047
439,1577,Duggan St before Outtrim Av,-35.436485,149.097607,231,477,-0.5146443514644351
440,1596,Newman-Morris Cct before Taverner St,-35.404247,149.077479,234,464,-0.4946236559139785
441,1597,Newman-Morris Cct after Taverner St,-35.404262,149.077609,236,477,-0.50418410041841
442,1599,McBryde Cr opp Trinity Christian School,-35.407416,149.087085,231,432,-0.46420323325635104
443,1600,Trinity Christian School McBryde Cr,-35.407527,149.086841,231,467,-0.5042735042735043
444,1601,Ashley Dr before Michaelis Ct,-35.403464,149.10163899999998,437,379,0.15263157894736842
445,1602,Ashley Dr before Lansell Cct,-35.403512,149.101825,231,199,0.16
446,1606,Calwell HS Casey Cr,-35.441239,149.116884,234,484,-0.5154639175257731
447,1608,St Clares College McMillan Cr SSO,-35.323219,149.146183,6,6,0.0
448,1609,St Edmunds College McMillan Cr SSO,-35.323215000000005,149.14603300000002,6,3,0.75
449,1615,Holy Family PS Castleton Cr,-35.410953000000006,149.115701,231,132,0.7443609022556391
450,1630,Laurens St before McBryde Cr,-35.406727000000004,149.08428999999998,231,432,-0.46420323325635104
451,1631,Laurens St after McBryde Cr,-35.40687,149.084323,231,437,-0.4703196347031963
452,1637,Weston Creek Terminus Hindmarsh Dr,-35.343932,149.027668,848,1441,-0.41123439667128986
453,1638,Forsythe St before Pockett Av,-35.47449,149.094704,269,538,-0.49907235621521334
454,1639,Forsythe St after Pockett Av,-35.474525,149.094926,262,511,-0.486328125
455,1641,Lanyon Marketplace Terminus,-35.45616,149.092291,503,735,-0.31521739130434784
456,1642,Barraclough Cr opp Goodwin Village,-35.416332000000004,149.096259,206,439,-0.5295454545454545
457,1649,Lawrence Wackett Cr before Tharwa Dr,-35.442646,149.122636,234,280,-0.16370106761565836
458,1650,Lawrence Wackett Cr after Scantlebury Cr,-35.442652,149.122792,231,479,-0.5166666666666667
459,1651,Goodwin Village Barraclough Cr,-35.41628,149.095901,206,440,-0.5306122448979592
460,1660,Barr Smith Av after 1st Derrington Cr,-35.432228,149.07665,517,724,-0.28551724137931034
461,1661,Barr Smith Av before 2nd Derrington Cr,-35.430812,149.074816,517,724,-0.28551724137931034
462,1666,Gordon PS Knoke Av,-35.458172,149.08623899999998,253,518,-0.5105973025048169
463,1667,Duggan St before Downard St,-35.438992,149.098285,234,466,-0.49678800856531047
464,1668,Duggan St before Pennington Cr,-35.439074,149.0982,231,477,-0.5146443514644351
465,1669,Clive Steele Av opp 187,-35.41987,149.085653,206,309,-0.33225806451612905
466,1670,189 Clive Steele Av,-35.419968,149.085854,206,291,-0.2910958904109589
467,1671,Clive Steele Av opp Falconer St,-35.421359,149.088592,206,309,-0.33225806451612905
468,1672,Clive Steele Av after Falconer St,-35.421377,149.08875,206,291,-0.2910958904109589
469,1675,Forsythe St after Bellchambers Cr,-35.475141,149.09761899999998,269,538,-0.49907235621521334
470,1676,Forsythe St after 1st Smeaton Cct,-35.474882,149.09715400000002,262,511,-0.486328125
471,1677,Forsythe St after 2nd Olive Pink Cr,-35.476552000000005,149.099793,269,538,-0.49907235621521334
472,1678,Forsythe St after 2nd Smeaton Cct,-35.476442999999996,149.09981499999998,262,511,-0.486328125
473,1679,Forsythe St after 2nd Alison Ashby Cr,-35.475241,149.101068,269,538,-0.49907235621521334
474,1680,73 Forsythe St,-35.474990000000005,149.100909,262,511,-0.486328125
475,1681,Paperbark St after Galbraith Cl,-35.472398999999996,149.103205,269,538,-0.49907235621521334
476,1682,Paperbark St after Troughton St,-35.472405,149.103104,262,511,-0.486328125
477,1683,Paperbark St before 2nd Kettlewell Cr,-35.469198999999996,149.104669,269,538,-0.49907235621521334
478,1684,Paperbark St opp 1st Kettlewell Cr,-35.469854999999995,149.104424,262,511,-0.486328125
479,1685,Paperbark St after 1st Kettlewell Cr,-35.468348999999996,149.10568899999998,269,538,-0.49907235621521334
480,1686,Paperbark St before Jane Sutherland St,-35.468242,149.105985,262,511,-0.486328125
481,1687,Templestowe Av after Eaglemont Rt,-35.463891,149.111349,269,539,-0.5
482,1688,Templestowe Av opp Eaglemont Rt,-35.46383,149.111208,262,513,-0.4883268482490272
483,1689,Templestowe Av after 2nd Barringer St,-35.462639,149.10978899999998,269,539,-0.5
484,1690,Templestowe Av opp 2nd Barringer St,-35.462751000000004,149.10949399999998,262,513,-0.4883268482490272
485,1691,Templestowe Av after 1st Barringer St,-35.462497,149.107923,269,539,-0.5
486,1692,Templestowe Av opp 2nd Barringer St,-35.462229,149.107194,262,513,-0.4883268482490272
487,1696,Barr Smith Av opp 2nd Derrington Cr,-35.432179999999995,149.076794,488,697,-0.2994269340974212
488,1697,Barr Smith Av opp 1st Derrington Cr,-35.430952000000005,149.075074,488,697,-0.2994269340974212
489,1698,Bugden Av opp Holy Family PS,-35.410042,149.118399,231,297,-0.2214765100671141
490,1699,Holy Family PS Bugden Av,-35.410011,149.118277,231,315,-0.26582278481012656
491,1708,City Interchange Plt 7 Arrivals,-35.277895,149.130764,311,178,0.7430167597765364
492,1721,City Interchange Plt 11 Arrivals,-35.279332000000004,149.13042099999998,1094,626,0.7464114832535885
493,1723,City Interchange Arrivals,-35.278552000000005,149.130596,44,4070,-0.9889462048636699
494,1726,Randwick Rd after Flemington Rd,-35.227940000000004,149.14306200000001,149,0,149.0
495,1729,Anthony Rolfe Av after Waghorn St,-35.18502,149.154597,68,0,68.0
496,1734,Canberra Hospital Hospital Rd,-35.346021,149.101947,519,1166,-0.5544130248500428
497,1736,UC Public Hospital Thirriwirri St,-35.233663,149.08193899999998,246,70,2.4788732394366195
498,1737,Thirriwirri St opp UC Public Hospital,-35.233762,149.081085,238,68,2.463768115942029
499,1738,Pantowora St before Allawoona St,-35.234349,149.086534,246,70,2.4788732394366195
500,1739,Pantowora St after Allawoona St,-35.234327,149.08626999999998,238,68,2.463768115942029
501,1766,Barrier St before Ipswich St,-35.326234,149.16751299999999,209,371,-0.43548387096774194
502,1768,Barrier St opp Isa St,-35.327690000000004,149.170232,209,371,-0.43548387096774194
503,1770,Barrier St before Pirie St,-35.326446999999995,149.168193,190,361,-0.4723756906077348
504,1771,Barrier St before Isa St,-35.327768,149.170613,190,361,-0.4723756906077348
505,1772,Newcastle St after Isa St,-35.325413,149.17259099999998,190,361,-0.4723756906077348
506,1776,Battye St opp CIT Bruce,-35.246471,149.09696599999998,441,649,-0.32
507,1777,Langton Cr before King Edward Tce,-35.298929,149.127197,470,268,0.7509293680297398
508,1778,Langton Cr after Newlands St,-35.299451,149.127409,480,272,0.7619047619047619
509,1790,Anthony Rolfe Av after Gundaroo Rd,-35.18271,149.130429,1374,2500,-0.4502199120351859
510,1791,Summerland Cct after Mannheim St,-35.385383000000004,149.073318,213,419,-0.49047619047619045
511,1792,Summerland Cct after Mason St,-35.385438,149.073249,213,414,-0.4843373493975904
512,1801,Gungahlin Place Plt 3 Arrivals,-35.18535,149.13516,1322,0,1322.0
513,1802,North Weston Park & Ride,-35.32168,149.05829599999998,767,845,-0.09219858156028368
514,1803,Tuggeranong Interchange Plt 3,-35.414656,149.06563500000001,704,1343,-0.47544642857142855
515,1804,Tuggeranong Interchange Plt 4,-35.414427,149.065463,914,1912,-0.5216936748562467
516,1807,Tuggeranong Interchange Plt 7,-35.414615999999995,149.06538799999998,478,917,-0.4782135076252723
517,1808,Tuggeranong Interchange Plt 8,-35.414922999999995,149.065626,910,1956,-0.5344915687276444
518,1809,Opp North Weston Park & Ride,-35.322590999999996,149.057622,762,834,-0.08622754491017964
519,1810,Anketell St opp Lakeside Leisure Centre,-35.412279,149.063313,213,435,-0.5091743119266054
520,1811,Theodore Terminus Chippindall Cct,-35.453058,149.118563,465,943,-0.5063559322033898
521,1812,Lanyon Marketplace Terminus,-35.456354,149.09246299999998,522,964,-0.45803108808290155
522,1815,Barr Smith Av opp Coombe St,-35.429014,149.074577,517,724,-0.28551724137931034
523,1816,Barr Smith Av after Coombe St,-35.428804,149.074735,488,697,-0.2994269340974212
524,1821,City West Marcus Clarke St,-35.279102,149.125561,1925,2700,-0.28693076638282117
525,1825,IKEA Majura Rd,-35.296085,149.187705,173,415,-0.5817307692307693
526,1836,Ashley Dr before Erindale Dr,-35.407621,149.10241000000002,925,1366,-0.32260424286759326
527,1837,Ashley Dr after Erindale Dr,-35.40745,149.102719,928,1376,-0.3253449527959332
528,1838,Ashley Dr opp Bugden Av,-35.413342,149.102358,694,1045,-0.3355640535372849
529,1839,Ashley Dr before Bugden Av,-35.412420000000004,149.102769,697,1052,-0.3371320037986705
530,1840,Ashley Dr before Isabella Dr,-35.424109,149.10323200000002,500,899,-0.44333333333333336
531,1841,Ashley Dr after Isabella Dr,-35.42265,149.10351,730,905,-0.19315673289183222
532,1903,Callaway Cr after 2nd Myles Connell Cr,-35.461905,149.08222800000001,527,1056,-0.5004730368968779
533,1904,Knoke Av after 1st Mina Wylie Cr,-35.463902000000004,149.08317399999999,253,518,-0.5105973025048169
534,1905,Wanniassa Shops Langdon Av,-35.391052,149.086784,488,908,-0.46204620462046203
535,1906,Langdon Av opp Wanniassa Shops,-35.391088,149.086937,491,926,-0.4692556634304207
536,1908,Wanniassa Park & Ride,-35.389589,149.084686,910,1960,-0.5354411014788373
537,1909,Wanniassa Park & Ride,-35.390178999999996,149.083559,862,2054,-0.5800486618004866
538,2,Athllon Dr after Learmonth Dr,-35.402611,149.064747,910,1980,-0.5401312468450278
539,2002,Launceston St before Furzer St,-35.3408,149.084461,3216,6132,-0.47546062285993806
540,2003,Theodore St before 1st James St,-35.335696,149.08125900000002,232,483,-0.518595041322314
541,2004,Theodore St before 2nd James St,-35.333496999999994,149.07975,232,483,-0.518595041322314
542,2005,Carruthers St opp Curtin PS,-35.33051,149.077728,232,483,-0.518595041322314
543,2006,Carruthers St after 2nd McCormack St,-35.327662,149.07558799999998,232,483,-0.518595041322314
544,2007,Carruthers St after Jennings St,-35.324566,149.075576,232,483,-0.518595041322314
545,2008,Throssell St after Kennerley St,-35.322986,149.074811,232,483,-0.518595041322314
546,2009,Throssell St after Jennings St,-35.32116,149.074925,232,483,-0.518595041322314
547,2010,Throssell St opp Prendergast St,-35.319388000000004,149.07703899999998,232,483,-0.518595041322314
548,2011,Dunstan St before McCulloch St,-35.318746999999995,149.080242,232,483,-0.518595041322314
549,2012,McCulloch St before 2nd Morgan Cr,-35.321608000000005,149.081954,232,483,-0.518595041322314
550,2013,McCulloch St after 2nd Morgan Cr,-35.323188,149.082576,232,483,-0.518595041322314
551,2014,Carruthers St opp Curtin Shops,-35.324606,149.082777,232,483,-0.518595041322314
552,2015,Carruthers St after Allan St,-35.325514,149.085024,232,483,-0.518595041322314
553,2016,Carruthers St before Groom St,-35.326917,149.090011,243,623,-0.6089743589743589
554,2017,Carruthers St after Yarra Glen,-35.325826,149.085235,243,493,-0.5060728744939271
555,2018,Curtin Shops Carruthers St,-35.324994000000004,149.083001,243,493,-0.5060728744939271
556,2019,McCulloch St before Propsting St,-35.323287,149.0824,243,493,-0.5060728744939271
557,2020,McCulloch St after Reynolds St,-35.320926,149.081591,243,493,-0.5060728744939271
558,2021,Dunstan St after McCulloch St,-35.318862,149.080228,243,493,-0.5060728744939271
559,2022,Throssell St after Prendergast St,-35.319479,149.076987,243,493,-0.5060728744939271
560,2023,Throssell St after 2nd Robertson St,-35.321521000000004,149.074953,243,493,-0.5060728744939271
561,2024,Throssell St after Storey St,-35.323040999999996,149.074948,243,493,-0.5060728744939271
562,2025,Carruthers St opp Jennings St,-35.324712,149.07565400000001,243,493,-0.5060728744939271
563,2026,Carruthers St after Nelson Pl,-35.327788,149.075785,243,493,-0.5060728744939271
564,2027,Carruthers St before Curtin PS,-35.330288,149.077684,243,493,-0.5060728744939271
565,2028,Theodore St opp 1st James St,-35.333686,149.079877,243,493,-0.5060728744939271
566,2029,Theodore St before 2nd Holman St,-35.335553999999995,149.081246,243,493,-0.5060728744939271
567,2030,Marrawah St after Theodore St,-35.338597,149.082031,243,493,-0.5060728744939271
568,2031,Launceston St after Irving St,-35.340665,149.084709,2138,4010,-0.4667165295437547
569,2032,Melrose Dr opp Phillip Pool,-35.339084,149.082813,1681,3161,-0.46805819101834284
570,2033,Melrose Dr before Launceston St,-35.339215,149.083122,1437,2755,-0.4782293178519594
571,2034,Beasley St opp Torrens PS,-35.372251,149.089791,246,372,-0.3378016085790885
572,2035,Torrens PS Beasley St,-35.371876,149.090661,246,375,-0.34308510638297873
573,2036,Beasley St after Lambrigg St,-35.371947999999996,149.095472,246,373,-0.339572192513369
574,2037,Beasley St after Athllon Dr,-35.371865,149.095493,246,376,-0.3448275862068966
575,2038,Badimara St after Yambina St,-35.358505,149.060114,250,446,-0.43847874720357943
576,2039,Beasley St before Wilkins St,-35.371718,149.098123,246,376,-0.3448275862068966
577,2040,Wilkins St after Hoadley St,-35.370606,149.099632,469,738,-0.36400541271989173
578,2041,Wilkins St after Beasley St,-35.370504,149.099423,466,747,-0.37566844919786097
579,2042,Heard St after Wilkins St,-35.368165000000005,149.09768799999998,466,747,-0.37566844919786097
580,2043,Heard St before Wilkins St,-35.368034,149.09757199999999,223,528,-0.5765595463137996
581,2044,Heard St opp Southlands Shops,-35.365578,149.095423,223,528,-0.5765595463137996
582,2045,Southlands Shops Heard St,-35.365471,149.095324,466,747,-0.37566844919786097
583,2050,Pearce Shops Macfarland Cr,-35.362987,149.081353,246,376,-0.3448275862068966
584,2052,Nemarang Cr after Larakia St,-35.351855,149.063909,247,445,-0.4439461883408072
585,2053,Hodgson Cr at Murphy Cr,-35.366274,149.08253100000002,246,537,-0.5408921933085502
586,2054,Hodgson Cr after Brinsmead St,-35.366215999999994,149.082327,246,537,-0.5408921933085502
587,2055,Macfarland Cr before 2nd Threlfall St,-35.358228999999994,149.075663,246,376,-0.3448275862068966
588,2056,Macfarland Cr after Wilsmore Cr,-35.358115999999995,149.075496,246,373,-0.339572192513369
589,2057,Macfarland Cr after Collings St,-35.361305,149.077995,246,376,-0.3448275862068966
590,2058,Macfarland Cr before Sheehan St,-35.361502,149.078048,246,373,-0.339572192513369
591,2059,Macfarland Cr after Waldock St,-35.355623,149.075247,246,373,-0.339572192513369
592,2060,Macfarland Cr opp Waldock St,-35.355734999999996,149.075326,246,376,-0.3448275862068966
593,2061,Chifley Shops Eggleston Cr,-35.35253,149.075535,246,376,-0.3448275862068966
594,2062,Eggleston Cr opp Chifley Shops,-35.35215,149.07530500000001,246,373,-0.339572192513369
595,2063,Eggleston Cr after McDonald St,-35.349594,149.07613899999998,246,373,-0.339572192513369
596,2064,Eggleston Cr after Plunkett St,-35.349676,149.076187,246,376,-0.3448275862068966
597,2065,Launceston St opp Dennes Pl,-35.346677,149.07413200000002,246,377,-0.34656084656084657
598,2066,Launceston St after Dennes Pl,-35.346726000000004,149.074034,246,374,-0.3413333333333333
599,2067,Launceston St before 2nd Tarraleah Cr,-35.343412,149.074526,246,377,-0.34656084656084657
600,2068,Launceston St after Port Arthur St,-35.342863,149.07467,246,374,-0.3413333333333333
601,2069,Lyons Shops Launceston St,-35.339708,149.076986,458,766,-0.4015645371577575
602,2070,Launceston St opp Lyons Shops,-35.340408000000004,149.076472,246,377,-0.34656084656084657
603,2071,Launceston St after Glenorchy St,-35.339541,149.079974,458,766,-0.4015645371577575
604,2072,Launceston St after Burnie St,-35.339601,149.07984,455,776,-0.41312741312741313
605,2073,Beasley St opp Gepp Pl,-35.368643,149.084696,246,376,-0.3448275862068966
606,2074,Torrens Shops Beasley St,-35.373089,149.086631,246,376,-0.3448275862068966
607,2075,Beasley St before Hawker St,-35.370810999999996,149.085237,246,373,-0.339572192513369
608,2076,Beasley St before Wyatt St,-35.370744,149.085364,246,376,-0.3448275862068966
609,2077,Beasley St before Gepp Pl,-35.368483000000005,149.084474,246,373,-0.339572192513369
610,2090,Badimara St after 1st Kalgoorlie Cr,-35.358631,149.060178,247,445,-0.4439461883408072
611,2091,Canberra College Launceston St,-35.341081,149.088575,683,1748,-0.6089193825042881
612,2092,Launceston St opp Canberra College,-35.340313,149.090339,684,1767,-0.6125565610859729
613,2093,Yamba Dr opp St Peter & St Pauls PS,-35.340546999999994,149.093514,684,1626,-0.578979717271051
614,2094,Yamba Dr after Kitchener St,-35.342457,149.096397,684,1626,-0.578979717271051
615,2095,Yamba Dr opp Canberra Hospital,-35.3467,149.09958,223,724,-0.6910344827586207
616,2096,Tyagarah St before Culgoa Cct,-35.350118,149.106441,220,359,-0.3861111111111111
617,2097,Culgoa Cct after 2nd Jindalee Cr,-35.352203,149.104392,223,353,-0.3672316384180791
618,2098,Culgoa Cct before Bulwarra Cl,-35.352339,149.104555,220,359,-0.3861111111111111
619,2099,Culgoa Cct after 1st Jindalee Cr,-35.35438,149.104996,223,353,-0.3672316384180791
620,2100,Culgoa Cct opp 2nd Jindalee Cr,-35.354306,149.105101,220,359,-0.3861111111111111
621,2101,Kareelah Vsta after Mialli Pl,-35.35546,149.10726699999998,220,359,-0.3861111111111111
622,2102,Kareelah Vsta after Gerogery Pl,-35.355484999999994,149.107132,223,353,-0.3672316384180791
623,2103,Kareelah Vsta before Numeralla St,-35.357431,149.107688,223,353,-0.3672316384180791
624,2104,Kareelah Vsta after Taronga Pl,-35.35778,149.108376,220,359,-0.3861111111111111
625,2105,Ngunawal Dr before Kareelah Vsta,-35.359443,149.109038,223,353,-0.3672316384180791
626,2106,Ngunawal Dr after Kareelah Vsta,-35.359623,149.10908700000002,220,359,-0.3861111111111111
627,2107,Bromby St before Cobbadah St,-35.36213,149.106953,223,353,-0.3672316384180791
628,2108,Bromby St opp Cobbadah St,-35.36208,149.107125,220,359,-0.3861111111111111
629,2109,Bromby St after William Wilkins Cr,-35.363601,149.107772,220,359,-0.3861111111111111
630,2110,Bromby St after Julia Flynn Av,-35.363640999999994,149.107655,223,352,-0.3654390934844193
631,2111,Julia Flynn Av after Adkinson Cl,-35.364206,149.110548,220,359,-0.3861111111111111
632,2112,St Judes PS Mulley St,-35.335532,149.05109099999999,425,832,-0.4885954381752701
633,2113,Mulley St opp St Judes PS,-35.335615000000004,149.051045,417,815,-0.4877450980392157
634,2114,Heysen St opp Gruner St,-35.331083,149.058611,212,392,-0.4580152671755725
635,2115,Heysen St before Gruner St,-35.3313,149.05879099999999,209,399,-0.475
636,2116,Heysen St before Bellette St,-35.333356,149.060901,212,392,-0.4580152671755725
637,2117,Heysen St after Bunny St,-35.333324,149.060689,209,399,-0.475
638,2118,Dixon Dr after Twynam St,-35.329561,149.046439,212,400,-0.4688279301745636
639,2119,Dixon Dr opp Guy Pl,-35.329473,149.046258,209,407,-0.4852941176470588
640,2120,Dixon Dr opp Hyndes Cr,-35.329679,149.04385,209,407,-0.4852941176470588
641,2121,Dixon Dr after Hyndes Cr,-35.329814,149.04386399999999,212,400,-0.4688279301745636
642,2122,Dixon Dr opp Warragamba Av,-35.330037,149.041986,212,400,-0.4688279301745636
643,2123,Dixon Dr after Warragamba Av,-35.329947,149.041878,209,407,-0.4852941176470588
644,2124,Warragamba Av before Dixon Dr,-35.330175,149.038159,209,407,-0.4852941176470588
645,2125,Warragamba Av after Dixon Dr,-35.330281,149.03817,212,400,-0.4688279301745636
646,2128,Burrinjuck Cr opp Duffy PS,-35.334199,149.03227900000002,216,422,-0.48699763593380613
647,2129,Duffy PS Burrinjuck Cr,-35.334854,149.03190700000002,205,414,-0.5036144578313253
648,2130,Burrinjuck Cr before Serpentine St,-35.333467999999996,149.034789,216,422,-0.48699763593380613
649,2131,Burrinjuck Cr before 2nd Blowering St,-35.333604,149.034653,205,414,-0.5036144578313253
650,2132,Burrinjuck Cr after 1st Blowering St,-35.333022,149.037223,205,414,-0.5036144578313253
651,2133,Duffy Shops Burrinjuck Cr,-35.336822999999995,149.031757,205,414,-0.5036144578313253
652,2134,Burrinjuck Cr opp Duffy Shops,-35.337046,149.031593,216,422,-0.48699763593380613
653,2135,Renmark St after 1st Jemalong St,-35.338440999999996,149.030275,216,422,-0.48699763593380613
654,2136,Renmark St after Eungella St,-35.338454,149.030462,205,414,-0.5036144578313253
655,2137,Eucumbene Dr opp 22,-35.341042,149.027533,216,424,-0.4894117647058824
656,2138,22 Eucumbene Dr,-35.341193,149.027549,205,416,-0.5059952038369304
657,2139,Hindmarsh Dr opp Weston Creek Terminus,-35.34382,149.027823,832,960,-0.1331945889698231
658,2140,Hindmarsh Dr opp Darwinia Tce,-35.343831,149.030117,427,602,-0.2902155887230514
659,2141,Wyangala St at Tullaroop St,-35.34252,149.032159,427,599,-0.2866666666666667
660,2142,Wyangala St after 2nd Burdekin St,-35.341375,149.03308700000002,430,601,-0.2840531561461794
661,2143,Wyangala St opp 1st Burdekin St,-35.340785,149.033719,427,599,-0.2866666666666667
662,2144,Hindmarsh Dr after Dixon Dr,-35.342053,149.042443,427,601,-0.28903654485049834
663,2145,Hindmarsh Dr opp Dixon Dr,-35.342162,149.042575,430,603,-0.28642384105960267
664,2147,Hindmarsh Dr before Darwinia Tce,-35.343913,149.030307,430,604,-0.28760330578512394
665,2148,Darwinia Tce opp Kathner St,-35.346607,149.02871399999998,200,417,-0.5191387559808612
666,2149,Darwinia Tce after Kathner St,-35.346302,149.028606,202,407,-0.5024509803921569
667,2150,Darwinia Tce after Angophora St,-35.34998,149.030099,200,417,-0.5191387559808612
668,2151,Darwinia Tce after Rafferty St,-35.350173,149.030192,202,407,-0.5024509803921569
669,2152,Darwinia Tce opp Rafferty St,-35.351417,149.03216,200,417,-0.5191387559808612
670,2153,Darwinia Tce before Rafferty St,-35.351395000000004,149.031963,202,407,-0.5024509803921569
671,2154,Darwinia Tce after Casuarina St,-35.352323,149.034142,200,417,-0.5191387559808612
672,2155,Darwinia Tce after Perry Dr,-35.352445,149.034245,202,407,-0.5024509803921569
673,2156,Perry Dr before Rene St,-35.354717,149.034561,200,417,-0.5191387559808612
674,2157,Perry Dr after 2nd Sidaway St,-35.354636,149.03446,202,407,-0.5024509803921569
675,2158,Perry Dr before Musgrove St,-35.356882,149.036443,200,417,-0.5191387559808612
676,2159,Perry Dr after Lipman St,-35.357012,149.036867,202,407,-0.5024509803921569
677,2160,Perry Dr opp Chapman Shops,-35.356227000000004,149.04011100000002,202,407,-0.5024509803921569
678,2161,Chapman Shops Perry Dr,-35.356077,149.04038300000002,200,417,-0.5191387559808612
679,2162,Perry Dr opp Chapman PS,-35.356885999999996,149.042435,202,407,-0.5024509803921569
680,2163,Chapman PS Perry Dr,-35.356825,149.042603,200,417,-0.5191387559808612
681,2164,Perry Dr at Bertel Cr,-35.359509,149.04453999999998,202,407,-0.5024509803921569
682,2165,Perry Dr opp Bertel Cr,-35.359309,149.044375,200,417,-0.5191387559808612
683,2166,Kalgoorlie Cr before Callide St,-35.360207,149.053153,247,445,-0.4439461883408072
684,2167,Kalgoorlie Cr before Kapunda St,-35.360215999999994,149.05293500000002,250,446,-0.43847874720357943
685,2168,Fisher Shops Kalgoorlie Cr,-35.36197,149.056644,247,445,-0.4439461883408072
686,2169,Kalgoorlie Cr opp Fisher Shops,-35.362054,149.05648,250,446,-0.43847874720357943
687,2170,Kalgoorlie Cr after Kambalda Cr,-35.362863,149.058952,250,446,-0.43847874720357943
688,2171,Kalgoorlie Cr opp Kambalda Cr,-35.362777,149.058672,247,445,-0.4439461883408072
689,2172,Kalgoorlie Cr before 2nd Jarrahdale St,-35.360351,149.06088799999998,247,445,-0.4439461883408072
690,2173,Kalgoorlie Cr after 1st Pandanus St,-35.36006,149.061206,250,446,-0.43847874720357943
691,2182,Badimara St after Hindmarsh Dr,-35.349921,149.068161,250,446,-0.43847874720357943
692,2183,Badimara St before Hindmarsh Dr,-35.349777,149.067994,247,445,-0.4439461883408072
693,2184,McInnes St after Hindmarsh Dr,-35.345983000000004,149.06278799999998,407,580,-0.2977624784853701
694,2185,McInnes St after 2nd Buvelot St,-35.345901,149.062983,416,581,-0.28350515463917525
695,2186,McInnes St after 1st Chevalier St,-35.34394,149.061455,407,580,-0.2977624784853701
696,2187,40 McInnes St,-35.343856,149.061492,416,581,-0.28350515463917525
697,2188,McInnes St after 2nd Chevalier St,-35.343242,149.059143,407,580,-0.2977624784853701
698,2189,McInnes St after 1st Buvelot St,-35.342631,149.058639,416,581,-0.28350515463917525
699,2190,McInnes St opp Conder St,-35.340911,149.058409,209,401,-0.47761194029850745
700,2191,McInnes St after Conder St,-35.340937,149.058201,212,406,-0.47665847665847666
701,2192,McInnes St before Gritten St,-35.338539000000004,149.059434,212,406,-0.47665847665847666
702,2193,McInnes St before Ironside St,-35.338414,149.05953,209,401,-0.47761194029850745
703,2194,Hilder St before Gritten St,-35.336872,149.05793,212,406,-0.47665847665847666
704,2195,Hilder St opp McInnes St,-35.336791,149.057818,209,401,-0.47761194029850745
705,2196,Hilder St after 1st Lycett St,-35.336748,149.056141,209,401,-0.47761194029850745
706,2197,Hilder St after Gritten St,-35.336841,149.05565,212,406,-0.47665847665847666
707,2198,Hilder St at McCubbin St,-35.335566,149.053869,209,401,-0.47761194029850745
708,2199,Hilder St before Streeton Dr,-35.335595,149.053752,212,406,-0.47665847665847666
709,2200,Namatjira Dr after Dillon Cl,-35.33927,149.05455700000002,642,796,-0.1932245922208281
710,2201,Namatjira Dr before Conder St,-35.340577,149.05659,642,796,-0.1932245922208281
711,2202,Namatjira Dr after Conder St,-35.342273999999996,149.05726299999998,837,970,-0.13697219361483007
712,2203,Parkinson St opp Backler Pl,-35.343276,149.055773,1506,1690,-0.10881135422826729
713,2204,Parkinson St at Backler Pl,-35.343409,149.05576399999998,1510,1682,-0.1021984551396316
714,2205,Cooleman Court Interchange Plt 1,-35.342365,149.05347,1506,1691,-0.10933806146572105
715,2206,Cooleman Court Interchange Plt 2,-35.342457,149.052865,1510,1682,-0.1021984551396316
716,2207,Blackwood Tce opp Holder Shops,-35.336677,149.044672,205,414,-0.5036144578313253
717,2208,Holder Shops Blackwood Tce,-35.336563,149.044607,216,422,-0.48699763593380613
718,2209,Blackwood Tce after Tyers St,-35.336096999999995,149.041154,216,422,-0.48699763593380613
719,2210,Blackwood Tce opp Tyers St,-35.336054,149.04093400000002,205,414,-0.5036144578313253
720,2212,Heysen St opp Preston St,-35.330242,149.055251,212,392,-0.4580152671755725
721,2213,Heysen St before Preston St,-35.330333,149.055247,209,399,-0.475
722,2214,Canberra Girls Grammar Senior School Melbourne Av,-35.318042999999996,149.115331,470,935,-0.4967948717948718
723,2216,Melbourne Av after National Cct,-35.313832,149.119077,954,1076,-0.11327762302692665
724,2217,Melbourne Av after Canterbury Cr,-35.312177,149.120541,954,1075,-0.11245353159851301
725,2218,State Cir after Melbourne Av,-35.311169,149.120628,484,447,0.08258928571428571
726,2219,Gawler Cr opp Canberra Girls Grammar Senior School,-35.317139000000005,149.11316000000002,480,946,-0.49208025343189016
727,2220,Canberra Girls Grammar Senior School Gawler Cr,-35.317221999999994,149.113343,470,941,-0.5
728,2221,Gawler Cr before Robe St,-35.31442,149.110472,470,935,-0.4967948717948718
729,2222,Hopetoun Cct before Grey St,-35.313076,149.10766,235,334,-0.2955223880597015
730,2223,Hopetoun Cct after Grose St,-35.313062,149.107382,240,347,-0.3074712643678161
731,2224,Hopetoun Cct after 1st Hampton Cct,-35.309643,149.106629,235,470,-0.4989384288747346
732,2225,Hopetoun Cct after Weston St,-35.310257,149.106627,240,488,-0.5071574642126789
733,2226,Hopetoun Cct before Loftus St,-35.307367,149.106482,240,488,-0.5071574642126789
734,2227,Hopetoun Cct before 1st Hampton Cct,-35.307424,149.106565,235,470,-0.4989384288747346
735,2228,Hopetoun Cct before Schlich St,-35.305177,149.106825,240,488,-0.5071574642126789
736,2229,Schlich St before Broome Cr,-35.304590000000005,149.104681,240,488,-0.5071574642126789
737,2230,Schlich St before Hopetoun Cct,-35.304595,149.106301,235,470,-0.4989384288747346
738,2231,Schlich St before Musgrave St,-35.304428,149.103817,235,470,-0.4989384288747346
739,2232,Eyre St after Howitt St,-35.31544,149.143959,703,1373,-0.487627365356623
740,2233,Wentworth Av after Giles St,-35.314296999999996,149.144498,435,838,-0.4803337306317044
741,2234,Wentworth Av after Dawes St,-35.317353999999995,149.146322,435,838,-0.4803337306317044
742,2235,Wentworth Av before Dawes St,-35.317088,149.145545,467,877,-0.46697038724373574
743,2240,Nemarang Cr opp Larakia St,-35.351929999999996,149.063966,250,446,-0.43847874720357943
744,2245,Parliament House Federation Mall Northbound,-35.305533000000004,149.126073,470,604,-0.22148760330578512
745,2246,Parliament House Federation Mall Southbound,-35.306084999999996,149.127012,480,620,-0.22544283413848631
746,2247,Commonwealth Av opp Albert Hall,-35.297891,149.126295,1709,3274,-0.4778625954198473
747,2248,Albert Hall Commonwealth Av,-35.297776,149.125878,1728,3268,-0.47109207708779444
748,2249,Nemarang Cr after Galibal St,-35.352321999999994,149.066874,247,445,-0.4439461883408072
749,2251,Nemarang Cr after Yiman St,-35.352526,149.06715400000002,250,446,-0.43847874720357943
750,2254,National Cct after Sydney Av,-35.311873999999996,149.132453,488,728,-0.3292181069958848
751,2255,National Cct before Syndey Av,-35.312135,149.132407,484,707,-0.3149717514124294
752,2256,National Cct before Bourke St,-35.310889,149.133151,484,707,-0.3149717514124294
753,2257,National Cct after Darling St,-35.309925,149.133216,488,728,-0.3292181069958848
754,2258,Barton Bus Stn Plt 1,-35.306076000000004,149.133149,1658,2644,-0.3727788279773157
755,2259,Barton Bus Stn Plt 2,-35.305591,149.133041,1609,2562,-0.3718298868513461
756,2261,Fairbairn Av before Creswell St,-35.283204,149.154216,173,379,-0.5421052631578948
757,2262,Fairbairn Av after Mount Ainslie Dr,-35.28529,149.16237900000002,173,379,-0.5421052631578948
758,2263,Fairbairn Av after Truscott St,-35.28525,149.161835,173,379,-0.5421052631578948
759,2264,Gilmore Cr opp Garran PS,-35.343983,149.101423,701,1381,-0.492040520984081
760,2265,Garran PS Gilmore Cr,-35.343981,149.101604,698,1382,-0.4945770065075922
761,2266,Kitchener St before 1st Gilmore Cr,-35.338278,149.102482,240,480,-0.498960498960499
762,2267,Kitchener St before Lynch St,-35.338147,149.102228,235,483,-0.512396694214876
763,2268,Kitchener St after McNicoll St,-35.335958000000005,149.100673,235,483,-0.512396694214876
764,2269,Kitchener St before Birdwood St,-35.335187,149.10001100000002,240,480,-0.498960498960499
765,2270,Kitchener St before Goble St,-35.333996,149.098343,240,480,-0.498960498960499
766,2271,Kitchener St opp Goble St,-35.333877,149.09786699999998,235,483,-0.512396694214876
767,2272,Kent St opp Hughes Shops,-35.333129,149.095038,240,622,-0.6131621187800963
768,2273,Kent St before Birdwood St,-35.329608,149.09456799999998,240,467,-0.48504273504273504
769,2274,Kent St after Jensen St,-35.329378000000005,149.094521,235,470,-0.4989384288747346
770,2275,Kent St opp Alfred Deakin HS,-35.325357000000004,149.096393,240,466,-0.48394004282655245
771,2276,Alfred Deakin HS Kent St,-35.324939,149.096525,235,469,-0.4978723404255319
772,2277,Royal Life Saving House Kent St,-35.322316,149.09772900000002,235,469,-0.4978723404255319
773,2278,Canberra Private Hospital Kent St,-35.319844,149.09817900000002,235,469,-0.4978723404255319
774,2279,Kent St opp Canberra Private Hospital,-35.319342999999996,149.09831,240,466,-0.48394004282655245
775,2280,Strickland Cr before Kent St,-35.318473,149.09885400000002,240,596,-0.5963149078726968
776,2281,Strickland Cr before Macgregor St,-35.318425,149.099019,235,603,-0.609271523178808
777,2282,Macgregor St after Cairns St,-35.31718,149.101426,240,596,-0.5963149078726968
778,2283,Macgregor St before Nathan St,-35.316947,149.10200700000001,235,603,-0.609271523178808
779,2284,Macgregor St before Stradbroke St,-35.316323,149.105658,240,596,-0.5963149078726968
780,2285,Macgregor St after De Chair St,-35.316264000000004,149.105207,235,603,-0.609271523178808
781,2286,Macgregor St opp Deakin Shops,-35.315459999999995,149.10831000000002,240,596,-0.5963149078726968
782,2287,Deakin Shops Hopetoun Cct,-35.314875,149.108376,235,603,-0.609271523178808
783,2288,Gawler Cr opp Robe St,-35.314785,149.11117,480,941,-0.4893842887473461
784,2289,Yambina Cr after Nemarang Cr,-35.356553000000005,149.059737,250,446,-0.43847874720357943
785,2290,Mawson Dr after Wilkins St,-35.363346,149.096533,223,362,-0.38292011019283745
786,2291,Kent St opp Royal Life Saving House,-35.322115000000004,149.097904,240,466,-0.48394004282655245
787,2292,Yambina Cr after Wirangu Pl,-35.356549,149.059626,247,445,-0.4439461883408072
788,2293,Ainsworth St before Mawson Dr,-35.361447,149.098717,223,362,-0.38292011019283745
789,2294,Mawson PS Ainsworth St,-35.3599,149.097833,223,362,-0.38292011019283745
790,2295,Ainsworth St opp Mawson PS,-35.359881,149.097633,220,368,-0.4010840108401084
791,2296,Canberra Christian School Ainsworth St,-35.356095,149.097686,223,362,-0.38292011019283745
792,2297,Ainsworth St opp Canberra Christian School,-35.356543,149.097409,220,368,-0.4010840108401084
793,2298,Streeton Dr before Bangalay Cr,-35.350687,149.04215,200,419,-0.5214285714285715
794,2299,Streeton Dr after Darwinia Tce,-35.352503999999996,149.041594,200,419,-0.5214285714285715
795,2300,Ainsworth St after Alsop Cl,-35.350578000000006,149.09341899999998,220,368,-0.4010840108401084
796,2301,Ainsworth St after Hindmarsh Dr,-35.349841999999995,149.09379199999998,223,362,-0.38292011019283745
797,2302,Gilmore Cr before 1st Eldridge Cr,-35.345755,149.104958,235,483,-0.512396694214876
798,2303,Gilmore Cr before Esson Pl,-35.345865,149.104937,240,480,-0.498960498960499
799,2304,John James Hospital Strickland Cr,-35.318467,149.09562,240,618,-0.6106623586429726
800,2305,Strickland Cr opp John James Hospital,-35.318363,149.09534,235,604,-0.6099173553719008
801,2306,Novar St after Kintore Cr,-35.311956,149.098203,235,470,-0.4989384288747346
802,2307,Novar St before Weston St,-35.310115,149.098205,235,470,-0.4989384288747346
803,2308,Yarralumla Shops Novar St,-35.307926,149.098184,235,470,-0.4989384288747346
804,2313,Melbourne Av opp Canberra Girls Grammar Senior Sch,-35.318478999999996,149.115575,480,941,-0.4893842887473461
805,2328,Canberra Av after Giles St,-35.320037,149.138344,703,1373,-0.487627365356623
806,2329,Giles St before Canberra Av,-35.319444,149.137537,690,1364,-0.4937728937728938
807,2330,Giles St after Leichhardt St,-35.317203000000006,149.138968,690,1364,-0.4937728937728938
808,2331,Eyre St before Leichhardt St,-35.318267,149.140351,703,1373,-0.487627365356623
809,2332,Dalrymple St before Goyder St,-35.342952000000004,149.138483,463,901,-0.48558758314855877
810,2333,Dalrymple St after Goyder St,-35.343101000000004,149.13863700000002,461,905,-0.4900662251655629
811,2334,Jindalee Aged Care Goyder St,-35.341372,149.142414,461,1171,-0.60580204778157
812,2335,Goyder St opp Jindalee Aged Care,-35.341204,149.142496,463,1167,-0.6027397260273972
813,2338,Narrabundah College Goyder St,-35.338409000000006,149.14800400000001,748,1363,-0.4508797653958944
814,2339,Goyder St opp Narrabundah College,-35.338198999999996,149.148566,757,1376,-0.4495279593318809
815,2340,Goyder St opp Kyeema St,-35.336696,149.153516,229,463,-0.5043103448275862
816,2341,Goyder St after Kyeema St,-35.336754,149.152926,240,474,-0.4926315789473684
817,2342,130 Goyder St,-35.337065,149.156005,229,463,-0.5043103448275862
818,2343,Goyder St opp 128,-35.337125,149.15651200000002,240,474,-0.4926315789473684
819,2344,92 Matina St,-35.334382,149.15864299999998,229,463,-0.5043103448275862
820,2345,Matina St opp 98,-35.334740999999994,149.158479,240,474,-0.4926315789473684
821,2346,Kootara Cr after Deeban Pl,-35.333006,149.15841799999998,240,474,-0.4926315789473684
822,2347,Kootara Cr after Matina St,-35.333096000000005,149.158548,229,463,-0.5043103448275862
823,2348,Kootara Cr before Boolimba Cr,-35.332972999999996,149.156621,229,463,-0.5043103448275862
824,2350,Narrabundah Shops Kootara Cr,-35.332518,149.15471200000002,285,463,-0.38362068965517243
825,2351,Kootara Cr opp Narrabundah Shops,-35.331939,149.153696,240,474,-0.4926315789473684
826,2352,Kootara Cr before Bundeela St,-35.331173,149.152186,229,463,-0.5043103448275862
827,2353,Narrabundah PS Kootara Cr,-35.329926,149.15098,240,474,-0.4926315789473684
828,2354,Kootara Cr opp Narrabundah PS,-35.328893,149.150082,229,463,-0.5043103448275862
829,2355,Kootara Cr before Keira St,-35.327325,149.149504,240,474,-0.4926315789473684
830,2361,McIntyre St after Stuart St,-35.33147,149.145318,461,903,-0.4889380530973451
831,2362,McIntyre St opp Stuart St,-35.331757,149.145026,463,901,-0.48558758314855877
832,2363,Stuart St at Strzelecki Cr,-35.330777000000005,149.143752,463,901,-0.48558758314855877
833,2364,Stuart St before Strzelecki Cr,-35.330178000000004,149.143406,461,903,-0.4889380530973451
834,2365,Griffith Shops Stuart St,-35.328656,149.142124,461,903,-0.4889380530973451
835,2366,Stuart St opp Griffith Shops,-35.327962,149.141294,463,901,-0.48558758314855877
836,2367,Stuart St before Barrallier St,-35.325495000000004,149.13921200000001,463,901,-0.48558758314855877
837,2368,Stuart St after Barrallier St,-35.325555,149.139401,461,903,-0.4889380530973451
838,2369,Stuart St after Hann St,-35.323676,149.137787,461,903,-0.4889380530973451
839,2370,Stuart St after Lockyer St,-35.323669,149.137651,463,901,-0.48558758314855877
840,2371,Captain Cook Cr opp Manuka Shops,-35.321071,149.1351,690,1367,-0.49488304093567254
841,2372,Manuka Shops Captain Cook Cr,-35.321678999999996,149.134521,703,1376,-0.4887436456063907
842,2373,Wentworth Av opp Old Bus Depot Markets,-35.313088,149.143217,1170,2250,-0.4797867614393603
843,2374,Old Bus Depot Markets Wentworth Av,-35.311627,149.142874,1125,1966,-0.42755465175394003
844,2375,Brisbane Av after Macquarie St,-35.309258,149.136503,1125,1725,-0.34762456546929316
845,2376,Australian Federal Police College Brisbane Av,-35.309746000000004,149.13703999999998,1170,1786,-0.34471180749860103
846,2378,St Peter & St Pauls PS Yamba Dr,-35.339999,149.093123,683,1615,-0.5767326732673267
847,2379,Yamba Dr before Kitchener St,-35.342462,149.096904,683,1615,-0.5767326732673267
848,2380,Yamba Dr opp Justinian St,-35.341134000000004,149.094758,683,1614,-0.5764705882352941
849,2382,Canberra Hospital Yamba Dr,-35.346484000000004,149.09975,220,715,-0.6913407821229051
850,2387,Ipswich St after Wiluna St,-35.329128999999995,149.163029,209,371,-0.43548387096774194
851,2389,Gladstone St before Maryborough St,-35.323608,149.172673,209,371,-0.43548387096774194
852,2390,Gladstone St before Kembla St,-35.322264000000004,149.174749,209,371,-0.43548387096774194
853,2391,86 Gladstone St,-35.322294,149.17963999999998,209,371,-0.43548387096774194
854,2392,120 Gladstone St,-35.32397,149.18220300000002,209,371,-0.43548387096774194
855,2394,Canberra Montessori School Mulley St,-35.331921,149.049059,209,410,-0.48905109489051096
856,2395,Blackwood Tce after Calder Cr,-35.334339,149.04845500000002,216,422,-0.48699763593380613
857,2396,Blackwood Tce after Mulley St,-35.334412,149.048503,205,414,-0.5036144578313253
858,2397,Blackwood Tce after Pearson St,-35.335625,149.046473,205,414,-0.5036144578313253
859,2398,Macfarland Cr opp Pearce Shops,-35.363155,149.08133,246,373,-0.339572192513369
860,2401,Newcastle St before Molonglo Mall,-35.32912,149.17816299999998,209,371,-0.43548387096774194
861,2403,Wollongong St before Maryborough St,-35.327447,149.177517,209,371,-0.43548387096774194
862,2406,Albany St before Collie St,-35.327405999999996,149.1812,190,361,-0.4723756906077348
863,2407,Wollongong St after Collie St,-35.326724,149.178392,190,361,-0.4723756906077348
864,2408,Blackwood Tce after Hyndes Cr,-35.335564,149.04636100000002,216,422,-0.48699763593380613
865,2409,Burrinjuck Cr after 1st Serpentine St,-35.332888,149.03733799999998,216,422,-0.48699763593380613
866,2410,Wyangala St before Hindmarsh Dr,-35.342558000000004,149.03230200000002,430,601,-0.2840531561461794
867,2415,Waramanga Shops Nemerang Cr,-35.352477,149.060606,247,445,-0.4439461883408072
868,2416,Nemarang Cr opp Waramanga Shops,-35.352678999999995,149.060601,250,446,-0.43847874720357943
869,2417,Arawang PS Nemerang Cr,-35.355483,149.060234,247,445,-0.4439461883408072
870,2418,Nemarang Cr opp Arawang PS,-35.355402000000005,149.060384,250,446,-0.43847874720357943
871,2419,Yambina Cr before Wirangu Pl,-35.357395000000004,149.059464,247,445,-0.4439461883408072
872,2421,Yambina Cr before Badimara St,-35.35776,149.059478,250,446,-0.43847874720357943
873,2423,Fremantle Dr after Bunbury St,-35.349007,149.04955,247,444,-0.44269662921348313
874,2424,Fremantle Dr opp Bunbury St,-35.34894,149.049422,250,443,-0.4346846846846847
875,2425,Fremantle Dr after 2nd Mackie Cr,-35.352453000000004,149.049215,247,444,-0.44269662921348313
876,2426,Fremantle Dr opp 2nd Reveley Cr,-35.352507,149.049037,250,443,-0.4346846846846847
877,2427,Fremantle Dr after 1st Reveley Cr,-35.353363,149.04755,247,444,-0.44269662921348313
878,2428,Fremantle Dr before Crowder Cct,-35.353851,149.04689,250,443,-0.4346846846846847
879,2429,Bangalay Cr after Casuarina St,-35.349006,149.036425,200,419,-0.5214285714285715
880,2430,Bangalay Cr opp Casuarina St,-35.349009,149.036661,202,407,-0.5024509803921569
881,2431,Bangalay Cr opp Rivett Shops,-35.346779999999995,149.035971,200,419,-0.5214285714285715
882,2432,Rivett Shops Bangalay Cr,-35.347034,149.036029,202,407,-0.5024509803921569
883,2433,Carbeen St after Bangalay Cr,-35.344349,149.03950700000001,200,418,-0.5202863961813843
884,2434,Carbeen St after 2nd Gungurra Cr,-35.34447,149.039452,202,406,-0.5012285012285013
885,2435,Carbeen St opp 2nd Gungurra Cr,-35.344015999999996,149.043047,200,418,-0.5202863961813843
886,2436,Carbeen St after 1st Gungurra Cr,-35.344128000000005,149.04298899999998,202,406,-0.5012285012285013
887,2437,Carbeen St before Tristania St,-35.342446,149.04568999999998,202,406,-0.5012285012285013
888,2438,Carbeen St before Hindmarsh Dr,-35.342385,149.045523,200,418,-0.5202863961813843
889,2439,Kootara Cr after 2nd Gymea St,-35.332769,149.156052,296,474,-0.37473684210526315
890,2444,Kootara Cr before McMillan Cr,-35.326259,149.14916599999998,229,463,-0.5043103448275862
891,2448,Novar St before Kintore Cr,-35.312031,149.09829299999998,240,488,-0.5071574642126789
892,2449,Novar St after Weston St,-35.310151,149.098289,240,488,-0.5071574642126789
893,2450,Novar St opp Yarralumla Shops,-35.307386,149.09831100000002,240,488,-0.5071574642126789
894,2451,Schlich St before Novar St,-35.303827000000005,149.09873000000002,240,488,-0.5071574642126789
895,2452,Schlich St after Novar St,-35.303771999999995,149.099083,235,470,-0.4989384288747346
896,2453,Tyagarah St after Culgoa Cct,-35.349919,149.106148,223,353,-0.3672316384180791
897,2454,Julia Flynn Av before 1st Ellwood Cr,-35.364222,149.11032600000001,223,353,-0.3672316384180791
898,2457,Julia Flynn Av before Crook Pl,-35.36558,149.112573,220,359,-0.3861111111111111
899,2458,Julia Flynn Av before 2nd Ringrose Cr,-35.365765,149.112523,223,353,-0.3672316384180791
900,2459,Julia Flynn Av opp Isaacs Shops,-35.36722,149.112822,220,359,-0.3861111111111111
901,2460,Isaacs Shops Julia Flynn Av,-35.367296,149.112619,223,353,-0.3672316384180791
902,2461,Julia Flynn Av after Dorsch St,-35.370031,149.111467,223,353,-0.3672316384180791
903,2462,Julia Flynn Av opp Dorsch St,-35.370236,149.111729,220,359,-0.3861111111111111
904,2463,Julia Flynn Av after 2nd Rule St,-35.37172,149.113458,220,359,-0.3861111111111111
905,2464,Julia Flynn Av before 2nd Walton St,-35.371902,149.113857,223,353,-0.3672316384180791
906,2465,Julia Flynn Av after Huffer Cl,-35.373262,149.11602,220,359,-0.3861111111111111
907,2466,Julia Flynn Av opp Rooney Pl,-35.373338000000004,149.11588999999998,223,353,-0.3672316384180791
908,2467,Julia Flynn Av after 2nd Rowntree Cr,-35.375625,149.114685,220,359,-0.3861111111111111
909,2468,Julia Flynn Av after Alexander Mackie Cct,-35.375628999999996,149.11451599999998,223,353,-0.3672316384180791
910,2469,Dookie St after Hawkesbury Cr,-35.376743,149.109216,220,359,-0.3861111111111111
911,2470,Dookie St after Longerenong St,-35.376729,149.10911000000002,223,353,-0.3672316384180791
912,2471,Farrer PS Lambrigg St,-35.378992,149.10714099999998,223,365,-0.3879781420765027
913,2472,Lambrigg St opp Farrer PS,-35.379151,149.107245,220,371,-0.40591397849462363
914,2473,Lambrigg St opp Prescott St,-35.377864,149.10394399999998,223,365,-0.3879781420765027
915,2474,Lambrigg St after Prescott St,-35.377961,149.10376000000002,220,371,-0.40591397849462363
916,2475,Marshall St opp Farrer Shops,-35.374983,149.101027,220,371,-0.40591397849462363
917,2476,Farrer Shops Marshall St,-35.375147,149.101153,223,365,-0.3879781420765027
918,2477,Marshall St opp Goodwin Village Farrer,-35.373633,149.10171100000002,223,365,-0.3879781420765027
919,2478,Goodwin Village Farrer Marshall St,-35.372818,149.101828,220,371,-0.40591397849462363
920,2479,Mawson Dr after Hurley St,-35.363194,149.096452,220,368,-0.4010840108401084
921,2480,Ainsworth St after Mawson Dr,-35.361672999999996,149.09862900000002,220,368,-0.4010840108401084
922,2481,Ainsworth St before Power St,-35.35342,149.09558,220,368,-0.4010840108401084
923,2482,Ainsworth St before Butters Dr,-35.353955,149.096909,223,362,-0.38292011019283745
924,2483,Ainsworth St opp Woden CIT,-35.347851,149.094895,235,481,-0.5103734439834025
925,2484,CIT Woden Ainsworth St,-35.347935,149.095029,240,478,-0.4968684759916493
926,2485,Ainsworth St after Kitchener St,-35.346014000000004,149.096768,240,478,-0.4968684759916493
927,2486,Ainsworth St before Kitchener St,-35.345693,149.096674,235,481,-0.5103734439834025
928,2487,Kitchener St after Ainsworth St,-35.344435,149.097398,235,481,-0.5103734439834025
929,2488,Kitchener St before Ainsworth St,-35.344604,149.09724,240,478,-0.4968684759916493
930,2492,Bangalay Cr before 1st Mirbelia Cr,-35.349342,149.038757,202,407,-0.5024509803921569
931,2493,Bangalay Cr opp 2nd Mirbelia Cr,-35.349292999999996,149.039816,200,419,-0.5214285714285715
932,2494,Kalgoorlie Cr after Mareeba St,-35.357795,149.053453,247,445,-0.4439461883408072
933,2495,Kalgoorlie Cr before 2nd Bendigo St,-35.357755,149.053334,250,446,-0.43847874720357943
934,2496,Mt Stromlo HS Badimara St,-35.355702,149.054441,247,445,-0.4439461883408072
935,2497,Badimara St opp Mt Stromlo HS,-35.355706,149.054251,250,446,-0.43847874720357943
936,2499,Devonport St opp Lyons Shops,-35.338826,149.07584599999998,209,399,-0.475
937,2500,Devonport St after 1st Scottsdale St,-35.336488,149.074674,212,392,-0.4580152671755725
938,2501,41 Devonport St,-35.336459999999995,149.074514,209,399,-0.475
939,2502,Devonport St opp 1st Derwent St,-35.334276,149.072025,212,392,-0.4580152671755725
940,2503,Devonport St after 2nd Derwent St,-35.334434,149.07201899999998,209,399,-0.475
941,2504,Heysen St before Devonport St,-35.333039,149.069297,212,392,-0.4580152671755725
942,2505,Heysen St after Devonport St,-35.333242,149.06921599999998,209,399,-0.475
943,2506,Mulley St after Dixon Dr,-35.330708,149.048483,209,409,-0.4878048780487805
944,2507,Warragamba Av before Jindabyne St,-35.330566,149.03491200000002,212,400,-0.4688279301745636
945,2508,Warragamba Av opp Jindabyne St,-35.330467999999996,149.034831,209,407,-0.4852941176470588
946,2509,Burrinjuck Cr after 2nd Tantangara St,-35.339542,149.036342,427,599,-0.2866666666666667
947,2510,Burrinjuck Cr after Kallara Cl,-35.339579,149.036765,430,601,-0.2840531561461794
948,2513,Mulley St opp Canberra Montessori School,-35.33265,149.048917,212,401,-0.4701492537313433
949,2514,Mulley St before Dixon Dr,-35.330704,149.048379,212,401,-0.4701492537313433
950,2520,Beasley St opp Torrens Shops,-35.373643,149.087106,246,373,-0.339572192513369
951,2521,Namatjira Dr after Bunbury St,-35.347093,149.05701100000002,416,388,0.07197943444730077
952,2522,Streeton Dr opp Darwinia Tce,-35.352406,149.041742,202,407,-0.5024509803921569
953,2523,Streeton Dr opp Bangalay Cr,-35.350883,149.042233,202,407,-0.5024509803921569
954,2530,Gilmore Cr at 1st Ingamells St,-35.339495,149.103561,240,480,-0.498960498960499
955,2531,Gilmore Cr after Sabine Cl,-35.339659000000005,149.10409199999998,235,483,-0.512396694214876
956,2532,Gilmore Cr after 2nd Ingamells St,-35.340067,149.107456,240,480,-0.498960498960499
957,2533,Gilmore Cr opp 1st Ingamells St,-35.340057,149.107089,235,483,-0.512396694214876
958,2534,Garran Shops Gilmore Cr,-35.342045,149.108792,235,483,-0.512396694214876
959,2535,Gilmore Cr opp Garran Shops,-35.342086,149.108972,240,480,-0.498960498960499
960,2536,Gilmore Cr before Hartigan St,-35.343476,149.108857,240,480,-0.498960498960499
961,2537,Gilmore Cr after Hopegood Pl,-35.34425,149.108032,235,483,-0.512396694214876
962,2539,Gilmore Cr opp 1st Eldridge Cr,-35.344997,149.10706399999998,240,480,-0.498960498960499
963,2540,Hughes Shops Wisdom St,-35.33292,149.094179,235,615,-0.6168831168831169
964,2542,Streeton Dr before Namatjira Dr,-35.355681,149.048834,449,850,-0.4712103407755582
965,2553,Gold Creek PS Kelleway Av,-35.18152,149.100659,257,146,0.7551020408163265
966,2556,Melbourne Av before Empire Cct,-35.316638,149.116575,470,935,-0.4967948717948718
967,2558,Daramalan College Cowper St,-35.252645,149.139351,235,472,-0.5010570824524313
968,2560,Ipima St before Wise St,-35.266106,149.136872,249,466,-0.46466809421841543
969,2563,Starke St after Powell St,-35.227714,149.01811,243,341,-0.28654970760233917
970,2565,Warragamba Av before Eucumbene Dr,-35.331036,149.02963,212,243,-0.12704918032786885
971,2566,Warragamba Av after Eucumbene Dr,-35.330917,149.029804,209,407,-0.4852941176470588
972,2569,Melba HS School Grounds SSO,-35.213887,149.049099,24,35,-0.3055555555555556
973,2571,Narrabundah College Jerrabomberra Av,-35.335868,149.14789299999998,463,902,-0.48615725359911405
974,2572,St Michaels PS Tyrell Cct,-35.223607,149.108981,12,8,0.4444444444444444
975,2581,Brindabella Christian College Brigalow St,-35.24929,149.12742,254,222,0.14349775784753363
976,2582,Streeton Dr after Namatjira Dr,-35.355708,149.048641,450,862,-0.47740440324449596
977,2586,Parliament House Parliament Dr Southbound,-35.307268,149.122739,480,680,-0.2936857562408223
978,2587,Parliament House Parliament Dr Northbound,-35.309077,149.126087,470,664,-0.29172932330827067
979,2589,Cooleman Court Interchange Plt 3,-35.340990000000005,149.05234199999998,459,1426,-0.677645409950946
980,2591,Namatjira Dr after Parkinson St,-35.343053999999995,149.057398,843,973,-0.13347022587268995
981,2592,Callam St after Hindmarsh Dr,-35.34819,149.08934299999999,2937,6543,-0.551039119804401
982,2593,Melbourne Av after Somers Cr,-35.312928,149.120525,968,1094,-0.11506849315068493
983,2594,Melbourne Av at National Cct,-35.314611,149.119025,480,941,-0.4893842887473461
984,2595,Melbourne Av at Empire Cct,-35.316413,149.117423,480,941,-0.4893842887473461
985,2596,Kingston Shops Eyre St,-35.316625,149.14181299999998,703,1373,-0.487627365356623
986,2597,Brigalow St opp Brindabella Christian College,-35.249014,149.12728700000002,235,67,2.4705882352941178
987,2598,Kingston Shops Giles St,-35.315802000000005,149.140198,690,1364,-0.4937728937728938
988,2601,Canberra Hospital Hospital Rd,-35.346322,149.101786,517,1162,-0.5546001719690455
989,2604,Bateson Rd before Canberra Hospital,-35.348687,149.102701,461,1162,-0.6027515047291487
990,2609,Southlands Shops Athllon Dr,-35.364908,149.092621,1353,3441,-0.6066240557815223
991,2610,Athllon Dr opp Southlands Shops,-35.363343,149.092283,1398,3328,-0.5797536797837188
992,2613,Gladstone St before Cessnock St,-35.3232,149.1729,190,361,-0.4723756906077348
993,2614,83 - 85 Gladstone St,-35.322006,149.179358,190,361,-0.4723756906077348
994,2615,127 Gladstone St,-35.324015,149.18239599999998,190,361,-0.4723756906077348
995,2616,Gladstone St opp Albany St,-35.325374,149.183654,190,361,-0.4723756906077348
996,2617,Bateson Rd after Canberra Hospital,-35.348599,149.10280600000002,463,1166,-0.6023993144815767
997,2623,Newcastle St after Wollongong St,-35.328876,149.178299,190,361,-0.4723756906077348
998,2634,Canberra Av after Monaro Hwy,-35.330461,149.16115,449,844,-0.46745562130177515
999,2642,Gawler Cr before Deakin Shops,-35.314271000000005,149.108831,480,941,-0.4893842887473461
1000,2643,Gawler Cr after Deakin Shops,-35.314215000000004,149.108768,470,936,-0.4973319103521878
1001,2646,Namatjira Dr after Hindmarsh Dr,-35.347112,149.057165,423,394,0.07341772151898734
1002,2647,Namatjira Dr before Badimara St,-35.353404,149.052595,423,394,0.07341772151898734
1003,2650,Athllon Dr after Shea St,-35.351277,149.09069499999998,1398,3325,-0.579374624173181
1004,2651,Athllon Dr opp Shea St,-35.352368,149.09127800000002,1353,3431,-0.6054778554778555
1005,2652,Athllon Dr after Beasley St,-35.371283,149.092671,1398,3330,-0.580006004202942
1006,2653,Athllon Dr 2nd after Beasley St,-35.375775,149.09321,1353,3441,-0.6066240557815223
1007,2654,Beasley St after Marshall St,-35.371151,149.100719,220,371,-0.40591397849462363
1008,2655,Beasley St opp Wilkins St,-35.371724,149.09871,246,373,-0.339572192513369
1009,2669,Streeton Dr opp Chapman PS,-35.354909,149.042503,202,407,-0.5024509803921569
1010,2670,Chapman PS Streeton Dr,-35.354765,149.04218,200,419,-0.5214285714285715
1011,2671,Ainsworth St opp Hobury St,-35.352035,149.09401,223,362,-0.38292011019283745
1012,2672,Ainsworth St before Horbury St,-35.352021,149.093789,220,368,-0.4010840108401084
1013,2673,Athllon Dr at Beasley St,-35.372591,149.093063,1353,3443,-0.6068524970963995
1014,2674,Beasley St after Torrens Pl,-35.372924,149.088827,246,376,-0.3448275862068966
1015,2675,142 Beasley St,-35.372983000000005,149.088941,246,373,-0.339572192513369
1016,2676,Dixon Dr before Blackwood Tce,-35.333656,149.039023,216,422,-0.48699763593380613
1017,2677,Dixon Dr before 2nd Burrinjuck Cr,-35.33359,149.038904,205,414,-0.5036144578313253
1018,2678,Canberra Av before Mildura St,-35.326703,149.15551100000002,625,1220,-0.4873054873054873
1019,2679,Westfield Woden Corinna St,-35.345915999999995,149.084212,1080,2187,-0.5059414990859232
1020,2680,Canberra Av after Nyrang St,-35.325695,149.153409,670,1062,-0.36876763875823143
1021,2687,Athllon Dr opp Parramatta St,-35.355429,149.091612,1353,3439,-0.6063953488372092
1022,2688,Athllon Dr after Parramatta St,-35.354038,149.09131299999999,1398,3325,-0.579374624173181
1023,2690,Namatjira Dr before Macnally St,-35.339349,149.05469399999998,636,793,-0.1977329974811083
1024,2695,Tom Roberts Av opp 1st Templestowe Av,-35.465682,149.105927,262,514,-0.4893203883495146
1025,2696,Tharwa Dr after Drakeford Dr,-35.44526,149.093656,772,1301,-0.4062980030721966
1026,2697,Tharwa Dr before Drakeford Dr,-35.445199,149.093261,762,1265,-0.39731437598736175
1027,2698,Tharwa Dr before Box Hill Av,-35.454626,149.091331,772,1301,-0.4062980030721966
1028,2699,Tharwa Dr after Box Hill Av,-35.454625,149.090981,762,1265,-0.39731437598736175
1029,2705,Woden Interchange Plt 3,-35.344481,149.08737,476,935,-0.49038461538461536
1030,2706,Woden Interchange Plt 4,-35.344444,149.0876,1000,2464,-0.5939148073022312
1031,2709,Woden Interchange Plt 6,-35.34424,149.087812,1099,2632,-0.5822255981769844
1032,2710,Woden Interchange Plt 7,-35.34391,149.087758,483,575,-0.1597222222222222
1033,2712,Woden Interchange Plt 8,-35.344002,149.08762099999998,334,231,0.44396551724137934
1034,2716,Woden Interchange Plt 11,-35.344446000000005,149.086941,448,801,-0.4401496259351621
1035,2717,Jim Pike Av after 1st Charlton Cr,-35.460817,149.078202,527,1056,-0.5004730368968779
1036,2718,Soward Way after Athllon Dr,-35.419474,149.066372,2554,4764,-0.46379853095487933
1037,2730,Kent St after Macartney Cr,-35.317013,149.098298,240,488,-0.5071574642126789
1038,2731,Kent St after Strickland Cr,-35.317149,149.098201,235,470,-0.4989384288747346
1039,2803,Steve Irwin Av before Ulysses Cct,-35.324372,149.036256,212,402,-0.47146401985111663
1040,2804,Woden Interchange Plt 2,-35.344539000000005,149.08695600000001,486,1172,-0.5848252344416027
1041,2805,Steve Irwin Av before David Fleay St,-35.324558,149.036357,209,409,-0.4878048780487805
1042,2806,Steve Irwin Av after John Gorton Dr,-35.320403000000006,149.036667,209,409,-0.4878048780487805
1043,2809,John Gorton Dr after Steve Irwin Av,-35.319416,149.036656,753,897,-0.1603563474387528
1044,2810,John Gorton Dr after Fred Daly Av,-35.320015999999995,149.037916,340,754,-0.5483443708609271
1045,2811,John Gorton Dr after Cotter Rd,-35.324779,149.043384,332,755,-0.5595238095238095
1046,2812,John Gorton Dr after Harold White Av,-35.325386,149.044625,552,935,-0.4091880341880342
1047,2814,Woden Interchange Plt 9,-35.34435,149.087515,625,1435,-0.564066852367688
1048,2815,Woden Interchange Plt 10,-35.344398999999996,149.08726399999998,485,1237,-0.6074313408723748
1049,2820,Streeton Drive after Unwin Pl,-35.32918,149.05393,642,920,-0.30184581976112923
1050,2821,Streeton Dr after Dixon Dr,-35.32795,149.05353,636,933,-0.31798715203426126
1051,2822,Cotter Rd After Streeton Dr,-35.326971,149.05264,541,936,-0.4215581643543223
1052,2824,Fyshwick Park & Ride Iron Knob St,-35.338688,149.182785,1271,2394,-0.4688935281837161
1053,2825,Canberra Av after Whyalla St,-35.335951,149.172779,423,702,-0.3968705547652916
1054,2826,Wyndham Av after Bielski St,-35.305351,149.026999,209,419,-0.5
1055,2827,Wyndham Av before Bielski St,-35.305519,149.026776,212,122,0.7317073170731707
1056,2828,Kondelea Way before Ada Norris Av,-35.302958000000004,149.020901,209,122,0.7073170731707317
1057,2829,Kondelea Way at Ada Norris Av,-35.303490000000004,149.020793,212,122,0.7317073170731707
1058,2830,Denman Prospect Shops Felstead Vista,-35.299328,149.02188,209,122,0.7073170731707317
1059,2831,Felstead Vista opp Denman Prospect Shops,-35.299141,149.021974,884,522,0.6921606118546845
1060,2832,Holborow Av before Eureka Way,-35.299125,149.026735,541,320,0.6884735202492211
1061,2833,Holborow Av after Eureka Way,-35.298894,149.026815,552,324,0.7015384615384616
1062,2834,Holborow Av after Greenwood St,-35.298937,149.029989,541,320,0.6884735202492211
1063,2835,Holborow Av after Greenwood St,-35.298611,149.031947,552,324,0.7015384615384616
1064,2836,John Gorton Dr after Wyndham Av,-35.304359999999996,149.03198999999998,541,259,1.0846153846153845
1065,2837,John Gorton Dr before Wyndham Av,-35.30465,149.03217,552,324,0.7015384615384616
1066,2839,John Gorton Dr after Holborow Av,-35.299656,149.034225,552,324,0.7015384615384616
1067,2840,Annabelle View before Harold White Av,-35.320301,149.046979,212,122,0.7317073170731707
1068,2841,Annabelle View after Harold White Av,-35.320311,149.046786,209,122,0.7073170731707317
1069,2842,Harold White Av after Woodberry Av,-35.324459000000004,149.044806,212,122,0.7317073170731707
1070,2843,Harold White Av before Woodberry Av,-35.324315999999996,149.044733,209,122,0.7073170731707317
1071,2845,John Gorton Dr after Opperman Av,-35.311997999999996,149.031926,753,442,0.7020316027088036
1072,2846,John Gorton Dr opp Opperman Av,-35.312967,149.032645,761,446,0.7046979865771812
1073,2908,Woden Interchange Plt 5,-35.344530999999996,149.087902,330,0,330.0
1074,2916,Woden Interchange Arrivals,-35.344530999999996,149.087276,3068,7247,-0.5765728476821192
1075,2919,Ipswich St before Canberra Av,-35.329094,149.16279699999998,190,361,-0.4723756906077348
1076,2925,Forrest PS National Cct,-35.315401,149.126899,488,684,-0.28613138686131384
1077,2926,National Cct opp Forrest PS,-35.315571000000006,149.126543,484,671,-0.27827380952380953
